[
    {
        "id": "9729",
        "lat": "21.4189684850001",
        "lng": "39.8169254470001",
        "placeId": "1",
        "placeName": "مسجد محمد علوي",
        "pagesCount": 1
    },
    {
        "id": "9641",
        "lat": "21.416237649",
        "lng": "39.8205474100001",
        "placeId": "1",
        "placeName": "مسجد الرفاعي",
        "pagesCount": 1
    },
    {
        "id": "9652",
        "lat": "21.4163346280001",
        "lng": "39.8192633350001",
        "placeId": "1",
        "placeName": "مسجد الحبشي",
        "pagesCount": 1
    },
    {
        "id": "8860",
        "lat": "21.41876861",
        "lng": "39.8161521230001",
        "placeId": "1",
        "placeName": "مسجد اصحاب السفلي",
        "pagesCount": 1
    },
    {
        "id": "9322",
        "lat": "21.416676174",
        "lng": "39.818083788",
        "placeId": "1",
        "placeName": "مسجد أهلي",
        "pagesCount": 1
    },
    {
        "id": "9925",
        "lat": "21.42402736",
        "lng": "39.814278184",
        "placeId": "1",
        "placeName": "مسجد بلادي",
        "pagesCount": 1
    },
    {
        "id": "9438",
        "lat": "21.41882388",
        "lng": "39.8154364810001",
        "placeId": "1",
        "placeName": "مسجد التقوى",
        "pagesCount": 1
    },
    {
        "id": "10051",
        "lat": "21.4159674270001",
        "lng": "39.818473972",
        "placeId": "1",
        "placeName": "مسجد زينب",
        "pagesCount": 1
    },
    {
        "id": "8947",
        "lat": "21.4184339180001",
        "lng": "39.81565619",
        "placeId": "1",
        "placeName": "مسجد الانصارى",
        "pagesCount": 1
    },
    {
        "id": "9467",
        "lat": "21.4196192650001",
        "lng": "39.8146544680001",
        "placeId": "1",
        "placeName": "مسجد خليل",
        "pagesCount": 1
    },
    {
        "id": "8797",
        "lat": "21.416280945",
        "lng": "39.8173256910001",
        "placeId": "1",
        "placeName": "مسجد جعفر علي خان",
        "pagesCount": 1
    },
    {
        "id": "9455",
        "lat": "21.4164395020001",
        "lng": "39.8296533710001",
        "placeId": "1",
        "placeName": "مسجد فلاته",
        "pagesCount": 1
    },
    {
        "id": "8928",
        "lat": "21.417043053",
        "lng": "39.830560303",
        "placeId": "1",
        "placeName": "مسجد السبع بنات",
        "pagesCount": 1
    },
    {
        "id": "9821",
        "lat": "21.4188486100001",
        "lng": "39.814628741",
        "placeId": "1",
        "placeName": "مسجد الامام",
        "pagesCount": 1
    },
    {
        "id": "9763",
        "lat": "21.418294664",
        "lng": "39.81497195",
        "placeId": "1",
        "placeName": "مسجد عالم الدين",
        "pagesCount": 1
    },
    {
        "id": "9882",
        "lat": "21.4150560860001",
        "lng": "39.818778825",
        "placeId": "1",
        "placeName": "مسجد أحمد محمد نور",
        "pagesCount": 1
    },
    {
        "id": "9661",
        "lat": "21.429108854",
        "lng": "39.8153345320001",
        "placeId": "1",
        "placeName": "مسجد الوزير",
        "pagesCount": 1
    },
    {
        "id": "9156",
        "lat": "21.4264509560001",
        "lng": "39.8136649200001",
        "placeId": "1",
        "placeName": "مسجد التيسير",
        "pagesCount": 1
    },
    {
        "id": "8902",
        "lat": "21.416290702",
        "lng": "39.8165097740001",
        "placeId": "1",
        "placeName": "مسجد يعقوب البخاري",
        "pagesCount": 1
    },
    {
        "id": "9556",
        "lat": "21.41450524",
        "lng": "39.8193957",
        "placeId": "1",
        "placeName": "مسجد محمد حسين صالح",
        "pagesCount": 1
    },
    {
        "id": "9323",
        "lat": "21.417583666",
        "lng": "39.831691022",
        "placeId": "1",
        "placeName": "مسجد معاذ بن جبل",
        "pagesCount": 1
    },
    {
        "id": "9988",
        "lat": "21.4148395550001",
        "lng": "39.8184694940001",
        "placeId": "1",
        "placeName": "مسجد محمد أسحاق هوساوي",
        "pagesCount": 1
    },
    {
        "id": "9446",
        "lat": "21.4319907710001",
        "lng": "39.8284434120001",
        "placeId": "1",
        "placeName": "مسجد الجندراوي 43",
        "pagesCount": 1
    },
    {
        "id": "8878",
        "lat": "21.4186936570001",
        "lng": "39.814060576",
        "placeId": "1",
        "placeName": "مسجد محمد فقية",
        "pagesCount": 1
    },
    {
        "id": "10073",
        "lat": "21.416192773",
        "lng": "39.8158834340001",
        "placeId": "1",
        "placeName": "مسجد عبد الغفور بخش",
        "pagesCount": 1
    },
    {
        "id": "9844",
        "lat": "21.4147776890001",
        "lng": "39.8176795140001",
        "placeId": "1",
        "placeName": "مسجد التوحيد",
        "pagesCount": 1
    },
    {
        "id": "9961",
        "lat": "21.4165884770001",
        "lng": "39.8152055730001",
        "placeId": "1",
        "placeName": "مسجد مخلص الرحمن",
        "pagesCount": 1
    },
    {
        "id": "9584",
        "lat": "21.427030001",
        "lng": "39.813071",
        "placeId": "1",
        "placeName": "مسجد زمان خان",
        "pagesCount": 1
    },
    {
        "id": "9105",
        "lat": "21.431280148",
        "lng": "39.816077867",
        "placeId": "1",
        "placeName": "مسجد كعكي",
        "pagesCount": 1
    },
    {
        "id": "8841",
        "lat": "21.417082524",
        "lng": "39.8142823430001",
        "placeId": "1",
        "placeName": "مسجد بسم الله",
        "pagesCount": 1
    },
    {
        "id": "9091",
        "lat": "21.418102837",
        "lng": "39.813522818",
        "placeId": "1",
        "placeName": "مسجد ابو فاطمة",
        "pagesCount": 1
    },
    {
        "id": "9175",
        "lat": "21.4150713130001",
        "lng": "39.830432644",
        "placeId": "1",
        "placeName": "مسجد العمدة",
        "pagesCount": 1
    },
    {
        "id": "9986",
        "lat": "21.415658438",
        "lng": "39.81532392",
        "placeId": "1",
        "placeName": "مسجد الرحمه",
        "pagesCount": 1
    },
    {
        "id": "9436",
        "lat": "21.415401457",
        "lng": "39.815507139",
        "placeId": "1",
        "placeName": "مسجد عبد السبحان",
        "pagesCount": 1
    },
    {
        "id": "9815",
        "lat": "21.4246993690001",
        "lng": "39.811775153",
        "placeId": "1",
        "placeName": "مسجد بلال",
        "pagesCount": 1
    },
    {
        "id": "9419",
        "lat": "21.4175470430001",
        "lng": "39.813401942",
        "placeId": "1",
        "placeName": "مسجد عباس",
        "pagesCount": 1
    },
    {
        "id": "9539",
        "lat": "21.433286739",
        "lng": "39.828883107",
        "placeId": "1",
        "placeName": "مسجد الجن",
        "pagesCount": 1
    },
    {
        "id": "10042",
        "lat": "21.425267761",
        "lng": "39.811567204",
        "placeId": "1",
        "placeName": "مسجد الطبشي",
        "pagesCount": 1
    },
    {
        "id": "8778",
        "lat": "21.4345643500001",
        "lng": "39.823983893",
        "placeId": "1",
        "placeName": "مسجد سعيد الغامدي",
        "pagesCount": 1
    },
    {
        "id": "8906",
        "lat": "21.414209111",
        "lng": "39.8165737310001",
        "placeId": "1",
        "placeName": "مسجد البوقري",
        "pagesCount": 1
    },
    {
        "id": "10146",
        "lat": "21.434571556",
        "lng": "39.822383766",
        "placeId": "1",
        "placeName": "مسجد ناصر دخيل الله",
        "pagesCount": 1
    },
    {
        "id": "9884",
        "lat": "21.415841657",
        "lng": "39.8144744520001",
        "placeId": "1",
        "placeName": "مسجد احمد الحجاجي",
        "pagesCount": 1
    },
    {
        "id": "9752",
        "lat": "21.4342082090001",
        "lng": "39.826837411",
        "placeId": "1",
        "placeName": "مسجد النور 40",
        "pagesCount": 1
    },
    {
        "id": "9974",
        "lat": "21.4159308930001",
        "lng": "39.8324284180001",
        "placeId": "1",
        "placeName": "مسجد حبيب الله بخاري",
        "pagesCount": 1
    },
    {
        "id": "9129",
        "lat": "21.415490692",
        "lng": "39.831991191",
        "placeId": "1",
        "placeName": "مسجد أهلي",
        "pagesCount": 1
    },
    {
        "id": "9431",
        "lat": "21.4125177380001",
        "lng": "39.820206995",
        "placeId": "1",
        "placeName": "مسجد حسين بن صالح",
        "pagesCount": 1
    },
    {
        "id": "10132",
        "lat": "21.4130686890001",
        "lng": "39.818389451",
        "placeId": "1",
        "placeName": "مسجد الخير",
        "pagesCount": 1
    },
    {
        "id": "9356",
        "lat": "21.416079272",
        "lng": "39.8140774710001",
        "placeId": "1",
        "placeName": "مسجد عبد الله مشرعي",
        "pagesCount": 1
    },
    {
        "id": "10025",
        "lat": "21.4342750160001",
        "lng": "39.8197877740001",
        "placeId": "1",
        "placeName": "مسجد سليمان الراجحي",
        "pagesCount": 1
    },
    {
        "id": "9976",
        "lat": "21.412325783",
        "lng": "39.8207440640001",
        "placeId": "1",
        "placeName": "مسجد الشيخ عبدالحميد احمد خضر البغدادي",
        "pagesCount": 1
    },
    {
        "id": "9896",
        "lat": "21.4126412910001",
        "lng": "39.819385546",
        "placeId": "1",
        "placeName": "مسجد يحيي الزهراني",
        "pagesCount": 1
    },
    {
        "id": "8880",
        "lat": "21.4143394170001",
        "lng": "39.81577058",
        "placeId": "1",
        "placeName": "مسجد ابراهيم محمود",
        "pagesCount": 1
    },
    {
        "id": "9384",
        "lat": "21.4124516250001",
        "lng": "39.8191159890001",
        "placeId": "1",
        "placeName": "مسجد الرضوان",
        "pagesCount": 1
    },
    {
        "id": "9080",
        "lat": "21.4145705550001",
        "lng": "39.831616545",
        "placeId": "1",
        "placeName": "مسجد تحسين سقاف",
        "pagesCount": 1
    },
    {
        "id": "9023",
        "lat": "21.4351973550001",
        "lng": "39.823011943",
        "placeId": "1",
        "placeName": "مسجد ام عبد الله الدعيلج",
        "pagesCount": 1
    },
    {
        "id": "8942",
        "lat": "21.4130434420001",
        "lng": "39.817104758",
        "placeId": "1",
        "placeName": "مسجد محمد عبدالله الغمادي",
        "pagesCount": 1
    },
    {
        "id": "9135",
        "lat": "21.415299503",
        "lng": "39.8327820060001",
        "placeId": "1",
        "placeName": "مسجد سعيد الحارثي",
        "pagesCount": 1
    },
    {
        "id": "8791",
        "lat": "21.4122988400001",
        "lng": "39.8185195390001",
        "placeId": "1",
        "placeName": "مسجد ابو مشاري",
        "pagesCount": 1
    },
    {
        "id": "9874",
        "lat": "21.4353057390001",
        "lng": "39.8212233030001",
        "placeId": "1",
        "placeName": "مسجد فضل سكري",
        "pagesCount": 1
    },
    {
        "id": "9726",
        "lat": "21.4144170000001",
        "lng": "39.8144330000001",
        "placeId": "1",
        "placeName": "مسجد يعقوب",
        "pagesCount": 1
    },
    {
        "id": "9359",
        "lat": "21.417460787",
        "lng": "39.8118225740001",
        "placeId": "1",
        "placeName": "مسجد موسى يعقوب",
        "pagesCount": 1
    },
    {
        "id": "10071",
        "lat": "21.414396379",
        "lng": "39.8323694860001",
        "placeId": "1",
        "placeName": "مسجد صفية بنت عبد المطلب",
        "pagesCount": 1
    },
    {
        "id": "9397",
        "lat": "21.435804117",
        "lng": "39.8217627270001",
        "placeId": "1",
        "placeName": "مسجد صالح بن يوسف المفضلي",
        "pagesCount": 1
    },
    {
        "id": "9206",
        "lat": "21.4120197130001",
        "lng": "39.8178525710001",
        "placeId": "1",
        "placeName": "مسجد الخلفاء الراشدين",
        "pagesCount": 1
    },
    {
        "id": "10031",
        "lat": "21.415040419",
        "lng": "39.813342155",
        "placeId": "1",
        "placeName": "مسجد العريني",
        "pagesCount": 1
    },
    {
        "id": "9265",
        "lat": "21.4160754650001",
        "lng": "39.812439925",
        "placeId": "1",
        "placeName": "مسجد  عبد العزيز الحجاجي",
        "pagesCount": 1
    },
    {
        "id": "9708",
        "lat": "21.4357078680001",
        "lng": "39.8205047060001",
        "placeId": "1",
        "placeName": "مسجد عبد الله بن مسعود",
        "pagesCount": 1
    },
    {
        "id": "8781",
        "lat": "21.412412666",
        "lng": "39.8167950340001",
        "placeId": "1",
        "placeName": "مسجد البئر",
        "pagesCount": 1
    },
    {
        "id": "8857",
        "lat": "21.4360111300001",
        "lng": "39.822557466",
        "placeId": "1",
        "placeName": "مسجد محمد علي عسيري",
        "pagesCount": 1
    },
    {
        "id": "8999",
        "lat": "21.434809205",
        "lng": "39.817527286",
        "placeId": "1",
        "placeName": "مسجد الأمير متعب",
        "pagesCount": 1
    },
    {
        "id": "9785",
        "lat": "21.414167607",
        "lng": "39.81413445",
        "placeId": "1",
        "placeName": "مسجد الحجاجي",
        "pagesCount": 1
    },
    {
        "id": "8926",
        "lat": "21.412004504",
        "lng": "39.829423079",
        "placeId": "1",
        "placeName": "مسجد بير بليلة",
        "pagesCount": 1
    },
    {
        "id": "8764",
        "lat": "21.4125751130001",
        "lng": "39.8161807980001",
        "placeId": "1",
        "placeName": "مسجد السراج المنير",
        "pagesCount": 1
    },
    {
        "id": "8873",
        "lat": "21.4362395580001",
        "lng": "39.821893597",
        "placeId": "1",
        "placeName": "مسجد سعد السريحي",
        "pagesCount": 1
    },
    {
        "id": "9908",
        "lat": "21.411831669",
        "lng": "39.816909416",
        "placeId": "1",
        "placeName": "مسجد يعقوب بخاري",
        "pagesCount": 1
    },
    {
        "id": "8954",
        "lat": "21.4139006780001",
        "lng": "39.8136088150001",
        "placeId": "1",
        "placeName": "مسجد يعقوب بخاري",
        "pagesCount": 1
    },
    {
        "id": "9607",
        "lat": "21.4159593480001",
        "lng": "39.811596169",
        "placeId": "1",
        "placeName": "مسجد صفية فلاتة",
        "pagesCount": 1
    },
    {
        "id": "9647",
        "lat": "21.4330699490001",
        "lng": "39.8331535890001",
        "placeId": "1",
        "placeName": "مسجد مزنة العليان 640",
        "pagesCount": 1
    },
    {
        "id": "9126",
        "lat": "21.4166260000001",
        "lng": "39.8109930000001",
        "placeId": "1",
        "placeName": "مسجد باخميس",
        "pagesCount": 1
    },
    {
        "id": "9153",
        "lat": "21.4116927950001",
        "lng": "39.8305461840001",
        "placeId": "1",
        "placeName": "مسجد اجياد ريع بخش",
        "pagesCount": 1
    },
    {
        "id": "8818",
        "lat": "21.436606747",
        "lng": "39.8197826210001",
        "placeId": "1",
        "placeName": "مسجد العيوني",
        "pagesCount": 1
    },
    {
        "id": "8762",
        "lat": "21.4304607510001",
        "lng": "39.8359385200001",
        "placeId": "1",
        "placeName": "مسجد منصور الحميدي",
        "pagesCount": 1
    },
    {
        "id": "9966",
        "lat": "21.4361968480001",
        "lng": "39.8180601540001",
        "placeId": "1",
        "placeName": "مسجد حمدان الفرج ",
        "pagesCount": 1
    },
    {
        "id": "9583",
        "lat": "21.412780674",
        "lng": "39.8140868040001",
        "placeId": "1",
        "placeName": "مسجد احمد ابراهيم تكروني",
        "pagesCount": 1
    },
    {
        "id": "9794",
        "lat": "21.41136156",
        "lng": "39.8163629140001",
        "placeId": "1",
        "placeName": "مسجد فردوس",
        "pagesCount": 1
    },
    {
        "id": "9342",
        "lat": "21.4371865840001",
        "lng": "39.821938807",
        "placeId": "1",
        "placeName": "مسجد محمد الغامدي",
        "pagesCount": 1
    },
    {
        "id": "9568",
        "lat": "21.413347201",
        "lng": "39.813156432",
        "placeId": "1",
        "placeName": "مسجد فاطمة الجزائرية",
        "pagesCount": 1
    },
    {
        "id": "9115",
        "lat": "21.4177070430001",
        "lng": "39.8097538270001",
        "placeId": "1",
        "placeName": "مسجد عيسى برناوي",
        "pagesCount": 1
    },
    {
        "id": "9869",
        "lat": "21.4372716880001",
        "lng": "39.8247479870001",
        "placeId": "1",
        "placeName": "مسجد الاميرة حصة ",
        "pagesCount": 1
    },
    {
        "id": "9407",
        "lat": "21.4257318900001",
        "lng": "39.808553503",
        "placeId": "1",
        "placeName": "مسجد عاشور بخارى",
        "pagesCount": 1
    },
    {
        "id": "8746",
        "lat": "21.412475655",
        "lng": "39.81351784",
        "placeId": "1",
        "placeName": "مسجد الكرداوي",
        "pagesCount": 1
    },
    {
        "id": "8914",
        "lat": "21.419817923",
        "lng": "39.8084949130001",
        "placeId": "1",
        "placeName": "مسجد الشيخ سليملنبن حسن نقاره",
        "pagesCount": 1
    },
    {
        "id": "9290",
        "lat": "21.430959864",
        "lng": "39.83655774",
        "placeId": "1",
        "placeName": "مسجد سعيد الغامدي",
        "pagesCount": 1
    },
    {
        "id": "10036",
        "lat": "21.4317960180001",
        "lng": "39.8107701960001",
        "placeId": "1",
        "placeName": "مسجد رقية بامحسن بن عبد الله",
        "pagesCount": 1
    },
    {
        "id": "9361",
        "lat": "21.4177784280001",
        "lng": "39.809020952",
        "placeId": "1",
        "placeName": "مسجد موسى هوساوس",
        "pagesCount": 1
    },
    {
        "id": "8753",
        "lat": "21.4127500000001",
        "lng": "39.8127000000001",
        "placeId": "1",
        "placeName": "مسجد عمر بن الخطاب",
        "pagesCount": 1
    },
    {
        "id": "9069",
        "lat": "21.4111169660001",
        "lng": "39.8319667230001",
        "placeId": "1",
        "placeName": "مسجد علي عامر",
        "pagesCount": 1
    },
    {
        "id": "9418",
        "lat": "21.43662053",
        "lng": "39.8164893650001",
        "placeId": "1",
        "placeName": "مسجد حميد الأنصاري",
        "pagesCount": 1
    },
    {
        "id": "8787",
        "lat": "21.4108767600001",
        "lng": "39.815070114",
        "placeId": "1",
        "placeName": "مسجد محمد صالح المجرشي",
        "pagesCount": 1
    },
    {
        "id": "10040",
        "lat": "21.417079142",
        "lng": "39.8090375040001",
        "placeId": "1",
        "placeName": "مسجد احمد العولقى",
        "pagesCount": 1
    },
    {
        "id": "8856",
        "lat": "21.4192061640001",
        "lng": "39.808082434",
        "placeId": "1",
        "placeName": "مسجد عبد الرحمن ركن",
        "pagesCount": 1
    },
    {
        "id": "9024",
        "lat": "21.434129758",
        "lng": "39.8345727120001",
        "placeId": "1",
        "placeName": "مسجد عبد الله بن عمر",
        "pagesCount": 1
    },
    {
        "id": "9983",
        "lat": "21.429135645",
        "lng": "39.808449158",
        "placeId": "1",
        "placeName": "مسجد الشيخ محمد صالح كعكي",
        "pagesCount": 1
    },
    {
        "id": "9892",
        "lat": "21.4182275530001",
        "lng": "39.808050569",
        "placeId": "1",
        "placeName": "مسجد عمر الفاروق",
        "pagesCount": 1
    },
    {
        "id": "9324",
        "lat": "21.4376187080001",
        "lng": "39.8175040140001",
        "placeId": "1",
        "placeName": "مسجد بن معتق",
        "pagesCount": 1
    },
    {
        "id": "9776",
        "lat": "21.4372369290001",
        "lng": "39.8162204860001",
        "placeId": "1",
        "placeName": "مسجد الوافي",
        "pagesCount": 1
    },
    {
        "id": "9838",
        "lat": "21.416072146",
        "lng": "39.8086718440001",
        "placeId": "1",
        "placeName": "مسجد الكعكى",
        "pagesCount": 1
    },
    {
        "id": "9117",
        "lat": "21.4078796420001",
        "lng": "39.8245788460001",
        "placeId": "1",
        "placeName": "مسجد الاركاني",
        "pagesCount": 1
    },
    {
        "id": "10026",
        "lat": "21.435054258",
        "lng": "39.8345788990001",
        "placeId": "1",
        "placeName": "مسجد طلال شافعي",
        "pagesCount": 1
    },
    {
        "id": "9832",
        "lat": "21.435334041",
        "lng": "39.8124612770001",
        "placeId": "1",
        "placeName": "مسجد باعثمان",
        "pagesCount": 1
    },
    {
        "id": "9272",
        "lat": "21.4390613730001",
        "lng": "39.8218727510001",
        "placeId": "1",
        "placeName": "مسجد معتوق صعبري",
        "pagesCount": 1
    },
    {
        "id": "10046",
        "lat": "21.4103185060001",
        "lng": "39.8140123690001",
        "placeId": "1",
        "placeName": "مسجد صالح الزهراني",
        "pagesCount": 1
    },
    {
        "id": "10049",
        "lat": "21.4092835910001",
        "lng": "39.8313373560001",
        "placeId": "1",
        "placeName": "مسجد الرحمانية",
        "pagesCount": 1
    },
    {
        "id": "9226",
        "lat": "21.4270821650001",
        "lng": "39.8065707800001",
        "placeId": "1",
        "placeName": "مسجد بن حسن",
        "pagesCount": 1
    },
    {
        "id": "9251",
        "lat": "21.41724362",
        "lng": "39.807318466",
        "placeId": "1",
        "placeName": "مسجد عبد الصمد احمد البغدادى",
        "pagesCount": 1
    },
    {
        "id": "9263",
        "lat": "21.4379341110001",
        "lng": "39.8155899290001",
        "placeId": "1",
        "placeName": "مسجد محمد الأحمدي ",
        "pagesCount": 1
    },
    {
        "id": "9015",
        "lat": "21.4359896240001",
        "lng": "39.8344223300001",
        "placeId": "1",
        "placeName": "مسجد بيشة",
        "pagesCount": 1
    },
    {
        "id": "9532",
        "lat": "21.4253945930001",
        "lng": "39.8059959870001",
        "placeId": "1",
        "placeName": "مسجد محمد سمير",
        "pagesCount": 1
    },
    {
        "id": "10060",
        "lat": "21.438550272",
        "lng": "39.816565746",
        "placeId": "1",
        "placeName": "مسجد واصل الخطابي",
        "pagesCount": 1
    },
    {
        "id": "9240",
        "lat": "21.437983893",
        "lng": "39.8316171930001",
        "placeId": "1",
        "placeName": "مسجد  محمد بن سعود",
        "pagesCount": 1
    },
    {
        "id": "9250",
        "lat": "21.4326539690001",
        "lng": "39.838051277",
        "placeId": "1",
        "placeName": "مسجد علي الحازمي",
        "pagesCount": 1
    },
    {
        "id": "8830",
        "lat": "21.4069053310001",
        "lng": "39.824508103",
        "placeId": "1",
        "placeName": "مسجد السبيعي",
        "pagesCount": 1
    },
    {
        "id": "8953",
        "lat": "21.431451968",
        "lng": "39.839034897",
        "placeId": "1",
        "placeName": "مسجد مبارك المطرفي",
        "pagesCount": 1
    },
    {
        "id": "10047",
        "lat": "21.4396028240001",
        "lng": "39.8189974960001",
        "placeId": "1",
        "placeName": "مسجد بن ملوح",
        "pagesCount": 1
    },
    {
        "id": "9097",
        "lat": "21.408796528",
        "lng": "39.8146734600001",
        "placeId": "1",
        "placeName": "مسجد عبد الله خليفة",
        "pagesCount": 1
    },
    {
        "id": "8967",
        "lat": "21.437983",
        "lng": "39.8145230000001",
        "placeId": "1",
        "placeName": "مسجد محمد الأحمدي",
        "pagesCount": 1
    },
    {
        "id": "9478",
        "lat": "21.4071650110001",
        "lng": "39.81879409",
        "placeId": "1",
        "placeName": "مسجد الإحسان والنجاح",
        "pagesCount": 1
    },
    {
        "id": "9395",
        "lat": "21.4400744210001",
        "lng": "39.820345306",
        "placeId": "1",
        "placeName": "مسجد الخويطر",
        "pagesCount": 1
    },
    {
        "id": "9004",
        "lat": "21.440119641",
        "lng": "39.8263248600001",
        "placeId": "1",
        "placeName": "مسجد مريم السليماني",
        "pagesCount": 1
    },
    {
        "id": "9292",
        "lat": "21.433181",
        "lng": "39.8083270000001",
        "placeId": "1",
        "placeName": "مسجد محمد الغامدى",
        "pagesCount": 1
    },
    {
        "id": "9870",
        "lat": "21.406319508",
        "lng": "39.822710182",
        "placeId": "1",
        "placeName": "مسجد هارون",
        "pagesCount": 1
    },
    {
        "id": "10111",
        "lat": "21.433969285",
        "lng": "39.808868906",
        "placeId": "1",
        "placeName": "مسجد الشيخ ابراهيم فهد الصبحى",
        "pagesCount": 1
    },
    {
        "id": "9653",
        "lat": "21.4063171290001",
        "lng": "39.8247136890001",
        "placeId": "1",
        "placeName": "مسجد فريد فوري",
        "pagesCount": 1
    },
    {
        "id": "9503",
        "lat": "21.4077773920001",
        "lng": "39.8309257080001",
        "placeId": "1",
        "placeName": "مسجد سعد بن عمار",
        "pagesCount": 1
    },
    {
        "id": "9042",
        "lat": "21.440607663",
        "lng": "39.8233132600001",
        "placeId": "1",
        "placeName": "مسجد قاسم الجهني",
        "pagesCount": 1
    },
    {
        "id": "9036",
        "lat": "21.408461576",
        "lng": "39.8141651550001",
        "placeId": "1",
        "placeName": "مسجد الفضل",
        "pagesCount": 1
    },
    {
        "id": "9549",
        "lat": "21.423767895",
        "lng": "39.8419204570001",
        "placeId": "1",
        "placeName": "مسجد جمعان الزهراني",
        "pagesCount": 1
    },
    {
        "id": "9288",
        "lat": "21.408919692",
        "lng": "39.813097676",
        "placeId": "1",
        "placeName": "مسجد محمد نور عطار",
        "pagesCount": 1
    },
    {
        "id": "9142",
        "lat": "21.4373735190001",
        "lng": "39.834606025",
        "placeId": "1",
        "placeName": "مسجد بن ظافر",
        "pagesCount": 1
    },
    {
        "id": "9128",
        "lat": "21.4377428110001",
        "lng": "39.8342386360001",
        "placeId": "1",
        "placeName": "مسجد بني عامر",
        "pagesCount": 1
    },
    {
        "id": "9486",
        "lat": "21.440944013",
        "lng": "39.822446804",
        "placeId": "1",
        "placeName": "مسجد سالم قطان",
        "pagesCount": 1
    },
    {
        "id": "10030",
        "lat": "21.4179556940001",
        "lng": "39.8053939010001",
        "placeId": "1",
        "placeName": "مسجد الاميره منيرة",
        "pagesCount": 1
    },
    {
        "id": "8899",
        "lat": "21.4278073040001",
        "lng": "39.8049890550001",
        "placeId": "1",
        "placeName": "مسجد الشناقطة",
        "pagesCount": 1
    },
    {
        "id": "9366",
        "lat": "21.424523",
        "lng": "39.8043260000001",
        "placeId": "1",
        "placeName": "مسجد زينب دوم",
        "pagesCount": 1
    },
    {
        "id": "9692",
        "lat": "21.407503729",
        "lng": "39.8145147980001",
        "placeId": "1",
        "placeName": "مسجد أحمد مولوي",
        "pagesCount": 1
    },
    {
        "id": "9702",
        "lat": "21.44144407",
        "lng": "39.8231264190001",
        "placeId": "1",
        "placeName": "مسجد احمد السيت",
        "pagesCount": 1
    },
    {
        "id": "10017",
        "lat": "21.4342754460001",
        "lng": "39.8388640000001",
        "placeId": "1",
        "placeName": "مسجد علي حجازي",
        "pagesCount": 1
    },
    {
        "id": "8792",
        "lat": "21.4283320480001",
        "lng": "39.8046461710001",
        "placeId": "1",
        "placeName": "مسجد امين حافظ",
        "pagesCount": 1
    },
    {
        "id": "9370",
        "lat": "21.406748276",
        "lng": "39.831289767",
        "placeId": "1",
        "placeName": "مسجد الصغير",
        "pagesCount": 1
    },
    {
        "id": "9909",
        "lat": "21.433675357",
        "lng": "39.8397460620001",
        "placeId": "1",
        "placeName": "مسجد جهز أبو عقال",
        "pagesCount": 1
    },
    {
        "id": "9526",
        "lat": "21.425659555",
        "lng": "39.8037082170001",
        "placeId": "1",
        "placeName": "مسجد الأصلاح",
        "pagesCount": 1
    },
    {
        "id": "9121",
        "lat": "21.4393504240001",
        "lng": "39.8133698020001",
        "placeId": "1",
        "placeName": "مسجد محمد حمادي الاحمدي",
        "pagesCount": 1
    },
    {
        "id": "10141",
        "lat": "21.4051767400001",
        "lng": "39.820268894",
        "placeId": "1",
        "placeName": "مسجد الشريف فواز العبدلي",
        "pagesCount": 1
    },
    {
        "id": "9598",
        "lat": "21.438542785",
        "lng": "39.835043667",
        "placeId": "1",
        "placeName": "مسجد الاسكندراني",
        "pagesCount": 1
    },
    {
        "id": "9065",
        "lat": "21.4338767",
        "lng": "39.806725332",
        "placeId": "1",
        "placeName": "مسجد على جميل",
        "pagesCount": 1
    },
    {
        "id": "8917",
        "lat": "21.4070453730001",
        "lng": "39.8135422600001",
        "placeId": "1",
        "placeName": "مسجد عبد الرحمن الناشري",
        "pagesCount": 1
    },
    {
        "id": "8822",
        "lat": "21.4327779750001",
        "lng": "39.8408742290001",
        "placeId": "1",
        "placeName": "مسجد عبداللطيف طاشكندي",
        "pagesCount": 1
    },
    {
        "id": "9132",
        "lat": "21.4354494500001",
        "lng": "39.838877933",
        "placeId": "1",
        "placeName": "مسجد القطري",
        "pagesCount": 1
    },
    {
        "id": "9161",
        "lat": "21.404753434",
        "lng": "39.8210258",
        "placeId": "1",
        "placeName": "مسجد محمود مليباري",
        "pagesCount": 1
    },
    {
        "id": "9000",
        "lat": "21.414096",
        "lng": "39.805752",
        "placeId": "1",
        "placeName": "مسجد سراج ابو العلا",
        "pagesCount": 1
    },
    {
        "id": "9381",
        "lat": "21.439586799",
        "lng": "39.812865011",
        "placeId": "1",
        "placeName": "مسجد سعد سعود الصاعدي",
        "pagesCount": 1
    },
    {
        "id": "8744",
        "lat": "21.422718366",
        "lng": "39.803013245",
        "placeId": "1",
        "placeName": "مسجد الهادي",
        "pagesCount": 1
    },
    {
        "id": "9261",
        "lat": "21.4361695630001",
        "lng": "39.8385262560001",
        "placeId": "1",
        "placeName": "مسجد بن عبيد",
        "pagesCount": 1
    },
    {
        "id": "9145",
        "lat": "21.4420238490001",
        "lng": "39.818839559",
        "placeId": "1",
        "placeName": "مسجد أنس بن مالك",
        "pagesCount": 1
    },
    {
        "id": "10125",
        "lat": "21.4425187320001",
        "lng": "39.8216331720001",
        "placeId": "1",
        "placeName": "مسجد سعد بن نمشان",
        "pagesCount": 1
    },
    {
        "id": "9797",
        "lat": "21.424285824",
        "lng": "39.8027141220001",
        "placeId": "1",
        "placeName": "مسجد عبدالرحيم قاسم ميمني",
        "pagesCount": 1
    },
    {
        "id": "9386",
        "lat": "21.440415769",
        "lng": "39.833168002",
        "placeId": "1",
        "placeName": "مسجد سعيد السيد",
        "pagesCount": 1
    },
    {
        "id": "8806",
        "lat": "21.4406357390001",
        "lng": "39.8140101270001",
        "placeId": "1",
        "placeName": "مسجد عبدالله بسام ",
        "pagesCount": 1
    },
    {
        "id": "9225",
        "lat": "21.436352045",
        "lng": "39.8078203900001",
        "placeId": "1",
        "placeName": "مسجد أبي بن كعب",
        "pagesCount": 1
    },
    {
        "id": "8949",
        "lat": "21.4061543620001",
        "lng": "39.8329101790001",
        "placeId": "1",
        "placeName": "مسجد محمد السبيل",
        "pagesCount": 1
    },
    {
        "id": "8937",
        "lat": "21.4254959670001",
        "lng": "39.802592845",
        "placeId": "1",
        "placeName": "مسجد أحمد الزهراني",
        "pagesCount": 1
    },
    {
        "id": "8963",
        "lat": "21.404090723",
        "lng": "39.820856194",
        "placeId": "1",
        "placeName": "مسجد الشنقيطي",
        "pagesCount": 1
    },
    {
        "id": "8888",
        "lat": "21.4265462010001",
        "lng": "39.8026686900001",
        "placeId": "1",
        "placeName": "مسجد نورة زقزوق",
        "pagesCount": 1
    },
    {
        "id": "9362",
        "lat": "21.404186646",
        "lng": "39.8196543980001",
        "placeId": "1",
        "placeName": "مسجد علي ابو شدادين",
        "pagesCount": 1
    },
    {
        "id": "10077",
        "lat": "21.4153447840001",
        "lng": "39.804104141",
        "placeId": "1",
        "placeName": "مسجد الشيخ العمده احمد خضر البغدادى",
        "pagesCount": 1
    },
    {
        "id": "8755",
        "lat": "21.4293268440001",
        "lng": "39.8031641580001",
        "placeId": "1",
        "placeName": "مسجد حسن الهبيرى",
        "pagesCount": 1
    },
    {
        "id": "9224",
        "lat": "21.4036977700001",
        "lng": "39.8227366580001",
        "placeId": "1",
        "placeName": "مسجد الخير",
        "pagesCount": 1
    },
    {
        "id": "9792",
        "lat": "21.4368648710001",
        "lng": "39.8391095380001",
        "placeId": "1",
        "placeName": "مسجد عبدالله جحلان",
        "pagesCount": 1
    },
    {
        "id": "9879",
        "lat": "21.443145596",
        "lng": "39.8206807830001",
        "placeId": "1",
        "placeName": "مسجد عباس بن ناشي",
        "pagesCount": 1
    },
    {
        "id": "9280",
        "lat": "21.4035020200001",
        "lng": "39.8235131160001",
        "placeId": "1",
        "placeName": "مسجد السيد",
        "pagesCount": 1
    },
    {
        "id": "9515",
        "lat": "21.434631795",
        "lng": "39.8410946910001",
        "placeId": "1",
        "placeName": "مسجد سلوم العتيبي",
        "pagesCount": 1
    },
    {
        "id": "9325",
        "lat": "21.426566426",
        "lng": "39.802208265",
        "placeId": "1",
        "placeName": "مسجد عبد الله أبو طالب",
        "pagesCount": 1
    },
    {
        "id": "9825",
        "lat": "21.4034502270001",
        "lng": "39.8209669730001",
        "placeId": "1",
        "placeName": "مسجد الرحمانية",
        "pagesCount": 1
    },
    {
        "id": "8828",
        "lat": "21.4397864150001",
        "lng": "39.8360073280001",
        "placeId": "1",
        "placeName": "مسجد الحبشي",
        "pagesCount": 1
    },
    {
        "id": "10067",
        "lat": "21.40330046",
        "lng": "39.8218541160001",
        "placeId": "1",
        "placeName": "مسجد عبد الهادي",
        "pagesCount": 1
    },
    {
        "id": "9760",
        "lat": "21.4377693160001",
        "lng": "39.8080765810001",
        "placeId": "1",
        "placeName": "مسجد عبد الرحمن كوشك",
        "pagesCount": 1
    },
    {
        "id": "9380",
        "lat": "21.4034686140001",
        "lng": "39.8195439610001",
        "placeId": "1",
        "placeName": "مسجد مبارك العبدلي",
        "pagesCount": 1
    },
    {
        "id": "9667",
        "lat": "21.4031849570001",
        "lng": "39.825096053",
        "placeId": "1",
        "placeName": "مسجد الرحمة",
        "pagesCount": 1
    },
    {
        "id": "9765",
        "lat": "21.441526126",
        "lng": "39.8134877900001",
        "placeId": "1",
        "placeName": "مسجد الدخيل",
        "pagesCount": 1
    },
    {
        "id": "9862",
        "lat": "21.4281050000001",
        "lng": "39.8021170000001",
        "placeId": "1",
        "placeName": "مسجد عبده وزان",
        "pagesCount": 1
    },
    {
        "id": "9338",
        "lat": "21.4359024610001",
        "lng": "39.840748359",
        "placeId": "1",
        "placeName": "مسجد علي الزهراني",
        "pagesCount": 1
    },
    {
        "id": "9981",
        "lat": "21.4165581990001",
        "lng": "39.8026007280001",
        "placeId": "1",
        "placeName": "مسجد محمد عبدون",
        "pagesCount": 1
    },
    {
        "id": "9537",
        "lat": "21.4242900620001",
        "lng": "39.8013438890001",
        "placeId": "1",
        "placeName": "مسجد الامير منصور",
        "pagesCount": 1
    },
    {
        "id": "9248",
        "lat": "21.4028764400001",
        "lng": "39.822535117",
        "placeId": "1",
        "placeName": "مسجد عبد الغني منشاوي",
        "pagesCount": 1
    },
    {
        "id": "9098",
        "lat": "21.427741697",
        "lng": "39.8017576820001",
        "placeId": "1",
        "placeName": "مسجد منار الاسلام",
        "pagesCount": 1
    },
    {
        "id": "9062",
        "lat": "21.4346641020001",
        "lng": "39.841904051",
        "placeId": "1",
        "placeName": "مسجد سيف بن غانم",
        "pagesCount": 1
    },
    {
        "id": "9285",
        "lat": "21.441389997",
        "lng": "39.8125652100001",
        "placeId": "1",
        "placeName": "مسجد معتوق ",
        "pagesCount": 1
    },
    {
        "id": "9849",
        "lat": "21.4422702030001",
        "lng": "39.8144531570001",
        "placeId": "1",
        "placeName": "مسجد عودة الحربي",
        "pagesCount": 1
    },
    {
        "id": "9979",
        "lat": "21.443453033",
        "lng": "39.817600693",
        "placeId": "1",
        "placeName": "مسجد علي حسين فقيهي",
        "pagesCount": 1
    },
    {
        "id": "8907",
        "lat": "21.444001671",
        "lng": "39.820566824",
        "placeId": "1",
        "placeName": "مسجد عطية الله",
        "pagesCount": 1
    },
    {
        "id": "9610",
        "lat": "21.4325471130001",
        "lng": "39.84340015",
        "placeId": "1",
        "placeName": "مسجد عوض الجعيد",
        "pagesCount": 1
    },
    {
        "id": "9866",
        "lat": "21.4377710000001",
        "lng": "39.8395380000001",
        "placeId": "1",
        "placeName": "مسجد الزهيري",
        "pagesCount": 1
    },
    {
        "id": "10122",
        "lat": "21.4414891800001",
        "lng": "39.834736976",
        "placeId": "1",
        "placeName": "مسجد حمود الرويس",
        "pagesCount": 1
    },
    {
        "id": "9594",
        "lat": "21.409045742",
        "lng": "39.8069209660001",
        "placeId": "1",
        "placeName": "مسجد الاميره منيره",
        "pagesCount": 1
    },
    {
        "id": "9123",
        "lat": "21.437427443",
        "lng": "39.806482836",
        "placeId": "1",
        "placeName": "مسجد الحوازم",
        "pagesCount": 1
    },
    {
        "id": "9674",
        "lat": "21.402421395",
        "lng": "39.8216057710001",
        "placeId": "1",
        "placeName": "مسجد عبد الحكيم برماوي",
        "pagesCount": 1
    },
    {
        "id": "10088",
        "lat": "21.443658762",
        "lng": "39.816627985",
        "placeId": "1",
        "placeName": "مسجد حميدي القرشي",
        "pagesCount": 1
    },
    {
        "id": "9138",
        "lat": "21.4164709900001",
        "lng": "39.8018504090001",
        "placeId": "1",
        "placeName": "مسجد دخيل الله الجهني",
        "pagesCount": 1
    },
    {
        "id": "9236",
        "lat": "21.443170353",
        "lng": "39.8148611",
        "placeId": "1",
        "placeName": "مسجد مسلم الخطابي",
        "pagesCount": 1
    },
    {
        "id": "9019",
        "lat": "21.4020700680001",
        "lng": "39.823978212",
        "placeId": "1",
        "placeName": "مسجد جميل",
        "pagesCount": 1
    },
    {
        "id": "10094",
        "lat": "21.4448526210001",
        "lng": "39.8218810000001",
        "placeId": "1",
        "placeName": "مسجد ساعد سعد الحربي",
        "pagesCount": 1
    },
    {
        "id": "10034",
        "lat": "21.428824676",
        "lng": "39.801036272",
        "placeId": "1",
        "placeName": "مسجد باتع الصبحي",
        "pagesCount": 1
    },
    {
        "id": "9856",
        "lat": "21.430031001",
        "lng": "39.8013789990001",
        "placeId": "1",
        "placeName": "مسجد الزهراء",
        "pagesCount": 1
    },
    {
        "id": "9679",
        "lat": "21.444937027",
        "lng": "39.823124771",
        "placeId": "1",
        "placeName": "مسجد ساره عبدالله المحياني",
        "pagesCount": 1
    },
    {
        "id": "8984",
        "lat": "21.4019997080001",
        "lng": "39.825716615",
        "placeId": "1",
        "placeName": "مسجد بكر بازعزوع",
        "pagesCount": 1
    },
    {
        "id": "9282",
        "lat": "21.4447604210001",
        "lng": "39.8195634860001",
        "placeId": "1",
        "placeName": "مسجد دغش بن طلال",
        "pagesCount": 1
    },
    {
        "id": "9975",
        "lat": "21.4099430000001",
        "lng": "39.8051520000001",
        "placeId": "1",
        "placeName": "مسجد ابراهيم سلني",
        "pagesCount": 1
    },
    {
        "id": "10062",
        "lat": "21.422910653",
        "lng": "39.8466964960001",
        "placeId": "1",
        "placeName": "مسجد أحمد بن حنبل",
        "pagesCount": 1
    },
    {
        "id": "9560",
        "lat": "21.4363641690001",
        "lng": "39.8421100750001",
        "placeId": "1",
        "placeName": "مسجد بريك الصفياني",
        "pagesCount": 1
    },
    {
        "id": "9654",
        "lat": "21.4262370760001",
        "lng": "39.800230309",
        "placeId": "1",
        "placeName": "مسجد محمد المالكي",
        "pagesCount": 1
    },
    {
        "id": "9006",
        "lat": "21.412595658",
        "lng": "39.803094936",
        "placeId": "1",
        "placeName": "مسجد محمد علي المطيوري",
        "pagesCount": 1
    },
    {
        "id": "10123",
        "lat": "21.431067",
        "lng": "39.8452844110001",
        "placeId": "1",
        "placeName": "مسجد حسن الجابري",
        "pagesCount": 1
    },
    {
        "id": "9353",
        "lat": "21.401677099",
        "lng": "39.8218874980001",
        "placeId": "1",
        "placeName": "مسجد برماوي",
        "pagesCount": 1
    },
    {
        "id": "8961",
        "lat": "21.4425838350001",
        "lng": "39.811901284",
        "placeId": "1",
        "placeName": "مسجد الريان",
        "pagesCount": 1
    },
    {
        "id": "8852",
        "lat": "21.4014819440001",
        "lng": "39.824881217",
        "placeId": "1",
        "placeName": "مسجد عمر بن الخطاب",
        "pagesCount": 1
    },
    {
        "id": "8900",
        "lat": "21.4014772240001",
        "lng": "39.8213868600001",
        "placeId": "1",
        "placeName": "مسجد عائشة فوال",
        "pagesCount": 1
    },
    {
        "id": "9433",
        "lat": "21.4448426380001",
        "lng": "39.8174788640001",
        "placeId": "1",
        "placeName": "مسجد طيبة",
        "pagesCount": 1
    },
    {
        "id": "9650",
        "lat": "21.43827",
        "lng": "39.8409886540001",
        "placeId": "1",
        "placeName": "مسجد صالح باوادي",
        "pagesCount": 1
    },
    {
        "id": "9116",
        "lat": "21.44056555",
        "lng": "39.838457308",
        "placeId": "1",
        "placeName": "مسجد  الملك عبدالعزيز",
        "pagesCount": 1
    },
    {
        "id": "9547",
        "lat": "21.4159619750001",
        "lng": "39.8009018610001",
        "placeId": "1",
        "placeName": "مسجد الميمني",
        "pagesCount": 1
    },
    {
        "id": "10114",
        "lat": "21.4012258340001",
        "lng": "39.822428707",
        "placeId": "1",
        "placeName": "مسجد عبد المجيد برماوي",
        "pagesCount": 1
    },
    {
        "id": "9007",
        "lat": "21.410764",
        "lng": "39.8036760000001",
        "placeId": "1",
        "placeName": "مسجد الصفا",
        "pagesCount": 1
    },
    {
        "id": "9507",
        "lat": "21.425392264",
        "lng": "39.799507389",
        "placeId": "1",
        "placeName": "مسجد النور",
        "pagesCount": 1
    },
    {
        "id": "9183",
        "lat": "21.4444046990001",
        "lng": "39.815051457",
        "placeId": "1",
        "placeName": "مسجد حسن العنزي",
        "pagesCount": 1
    },
    {
        "id": "9214",
        "lat": "21.4458632020001",
        "lng": "39.8233993200001",
        "placeId": "1",
        "placeName": "مسجد المنارتين",
        "pagesCount": 1
    },
    {
        "id": "9817",
        "lat": "21.426538313",
        "lng": "39.799485668",
        "placeId": "1",
        "placeName": "مسجد محمد فخر داني",
        "pagesCount": 1
    },
    {
        "id": "9746",
        "lat": "21.4376647720001",
        "lng": "39.8421143140001",
        "placeId": "1",
        "placeName": "مسجد المصموم",
        "pagesCount": 1
    },
    {
        "id": "9443",
        "lat": "21.408316251",
        "lng": "39.80539356",
        "placeId": "1",
        "placeName": "مسجد عبد الله بن منيع",
        "pagesCount": 1
    },
    {
        "id": "10058",
        "lat": "21.4237729910001",
        "lng": "39.799150479",
        "placeId": "1",
        "placeName": "مسجد محمد يحيى كردي",
        "pagesCount": 1
    },
    {
        "id": "10127",
        "lat": "21.416998743",
        "lng": "39.8000941700001",
        "placeId": "1",
        "placeName": "مسجد جواهر الحبشي",
        "pagesCount": 1
    },
    {
        "id": "9684",
        "lat": "21.443092",
        "lng": "39.8354800000001",
        "placeId": "1",
        "placeName": "مسجد الدهسه",
        "pagesCount": 1
    },
    {
        "id": "9924",
        "lat": "21.444182814",
        "lng": "39.8134667360001",
        "placeId": "1",
        "placeName": "مسجد ملقية السفلي",
        "pagesCount": 1
    },
    {
        "id": "9685",
        "lat": "21.406454169",
        "lng": "39.806744032",
        "placeId": "1",
        "placeName": "مسجد الشهداء",
        "pagesCount": 1
    },
    {
        "id": "9273",
        "lat": "21.4357089320001",
        "lng": "39.802494919",
        "placeId": "1",
        "placeName": "مسجد صالح بوقري ",
        "pagesCount": 1
    },
    {
        "id": "10102",
        "lat": "21.4465447910001",
        "lng": "39.8232009770001",
        "placeId": "1",
        "placeName": "مسجد غالي الحربي",
        "pagesCount": 1
    },
    {
        "id": "9996",
        "lat": "21.446434519",
        "lng": "39.819997415",
        "placeId": "1",
        "placeName": "مسجد الوفيان",
        "pagesCount": 1
    },
    {
        "id": "9968",
        "lat": "21.445427867",
        "lng": "39.8153655460001",
        "placeId": "1",
        "placeName": "مسجد ابو المدافع",
        "pagesCount": 1
    },
    {
        "id": "9618",
        "lat": "21.4421515980001",
        "lng": "39.838200934",
        "placeId": "1",
        "placeName": "مسجد الإجابة",
        "pagesCount": 1
    },
    {
        "id": "9180",
        "lat": "21.43952749",
        "lng": "39.841448359",
        "placeId": "1",
        "placeName": "مسجد الخليفي",
        "pagesCount": 1
    },
    {
        "id": "9587",
        "lat": "21.4316782760001",
        "lng": "39.846772679",
        "placeId": "1",
        "placeName": "مسجد ناصر السريع 120",
        "pagesCount": 1
    },
    {
        "id": "9349",
        "lat": "21.4369816560001",
        "lng": "39.8437735730001",
        "placeId": "1",
        "placeName": "مسجد منصور العرافة",
        "pagesCount": 1
    },
    {
        "id": "9734",
        "lat": "21.4001220820001",
        "lng": "39.8248371970001",
        "placeId": "1",
        "placeName": "مسجد سعيد الزهراني",
        "pagesCount": 1
    },
    {
        "id": "9055",
        "lat": "21.39996246",
        "lng": "39.822957542",
        "placeId": "1",
        "placeName": "مسجد الخير",
        "pagesCount": 1
    },
    {
        "id": "9152",
        "lat": "21.4469516120001",
        "lng": "39.822546995",
        "placeId": "1",
        "placeName": "مسجد سويلم اللهيبي",
        "pagesCount": 1
    },
    {
        "id": "10137",
        "lat": "21.4323610000001",
        "lng": "39.799968",
        "placeId": "1",
        "placeName": "مسجد الكويتي",
        "pagesCount": 1
    },
    {
        "id": "8991",
        "lat": "21.405764124",
        "lng": "39.8064991740001",
        "placeId": "1",
        "placeName": "مسجد بركات العبدلى",
        "pagesCount": 1
    },
    {
        "id": "9482",
        "lat": "21.411938192",
        "lng": "39.8011822560001",
        "placeId": "1",
        "placeName": "مسجد سعد الطفران",
        "pagesCount": 1
    },
    {
        "id": "9434",
        "lat": "21.4297269360001",
        "lng": "39.798865515",
        "placeId": "1",
        "placeName": "مسجد النزهه",
        "pagesCount": 1
    },
    {
        "id": "8904",
        "lat": "21.444085719",
        "lng": "39.835924796",
        "placeId": "1",
        "placeName": "مسجد بن شويش",
        "pagesCount": 1
    },
    {
        "id": "9067",
        "lat": "21.4470700000001",
        "lng": "39.82703",
        "placeId": "1",
        "placeName": "مسجد النور",
        "pagesCount": 1
    },
    {
        "id": "8770",
        "lat": "21.4399573600001",
        "lng": "39.804704558",
        "placeId": "1",
        "placeName": "مسجد السليمان",
        "pagesCount": 1
    },
    {
        "id": "9676",
        "lat": "21.4183581560001",
        "lng": "39.798073704",
        "placeId": "1",
        "placeName": "مسجد أهلي",
        "pagesCount": 1
    },
    {
        "id": "8772",
        "lat": "21.40614164",
        "lng": "39.8053251850001",
        "placeId": "1",
        "placeName": "مسجد عمر بن سعود",
        "pagesCount": 1
    },
    {
        "id": "8843",
        "lat": "21.4409303360001",
        "lng": "39.841323867",
        "placeId": "1",
        "placeName": "مسجد قاسم ال ثاني",
        "pagesCount": 1
    },
    {
        "id": "9947",
        "lat": "21.436541172",
        "lng": "39.8014949990001",
        "placeId": "1",
        "placeName": "مسجد أهلي",
        "pagesCount": 1
    },
    {
        "id": "9367",
        "lat": "21.4282930000001",
        "lng": "39.797875",
        "placeId": "1",
        "placeName": "مسجد خبيب بن عدي",
        "pagesCount": 1
    },
    {
        "id": "9494",
        "lat": "21.4476090430001",
        "lng": "39.825129567",
        "placeId": "1",
        "placeName": "مسجد عبدالرحمن المقرن",
        "pagesCount": 1
    },
    {
        "id": "10005",
        "lat": "21.4476110000001",
        "lng": "39.8211440000001",
        "placeId": "1",
        "placeName": "مسجد الكويتي",
        "pagesCount": 1
    },
    {
        "id": "10011",
        "lat": "21.4075182880001",
        "lng": "39.803653533",
        "placeId": "1",
        "placeName": "مسجد على باسرحة",
        "pagesCount": 1
    },
    {
        "id": "9881",
        "lat": "21.4234847280001",
        "lng": "39.7972194270001",
        "placeId": "1",
        "placeName": "مسجد مبارك المجنوني",
        "pagesCount": 1
    },
    {
        "id": "8879",
        "lat": "21.4253374570001",
        "lng": "39.7972931950001",
        "placeId": "1",
        "placeName": "مسجد محمد بيش المجنوني",
        "pagesCount": 1
    },
    {
        "id": "8941",
        "lat": "21.4453471640001",
        "lng": "39.8119373370001",
        "placeId": "1",
        "placeName": "مسجد عمر عبد الجبار",
        "pagesCount": 1
    },
    {
        "id": "10103",
        "lat": "21.4237955680001",
        "lng": "39.7971356740001",
        "placeId": "1",
        "placeName": "مسجد مبارك المجنوني",
        "pagesCount": 1
    },
    {
        "id": "9423",
        "lat": "21.4258166710001",
        "lng": "39.797226208",
        "placeId": "1",
        "placeName": "مسجد عمر باحاذق",
        "pagesCount": 1
    },
    {
        "id": "9960",
        "lat": "21.435609114",
        "lng": "39.8003307990001",
        "placeId": "1",
        "placeName": "مسجد ابراهيم بن مسعود",
        "pagesCount": 1
    },
    {
        "id": "9735",
        "lat": "21.4236370130001",
        "lng": "39.7967935040001",
        "placeId": "1",
        "placeName": "مسجد ابراهيم علي ملا",
        "pagesCount": 1
    },
    {
        "id": "9303",
        "lat": "21.41668451",
        "lng": "39.7976398930001",
        "placeId": "1",
        "placeName": "مسجد الاحسان",
        "pagesCount": 1
    },
    {
        "id": "10113",
        "lat": "21.4080546430001",
        "lng": "39.802324545",
        "placeId": "1",
        "placeName": "مسجد سعد الجخبى",
        "pagesCount": 1
    },
    {
        "id": "9616",
        "lat": "21.427058991",
        "lng": "39.796859849",
        "placeId": "1",
        "placeName": "مسجد عمر معشي",
        "pagesCount": 1
    },
    {
        "id": "9385",
        "lat": "21.439576",
        "lng": "39.843804",
        "placeId": "1",
        "placeName": "مسجد علي حجازي",
        "pagesCount": 1
    },
    {
        "id": "9736",
        "lat": "21.441296649",
        "lng": "39.842143375",
        "placeId": "1",
        "placeName": "مسجد فواز الصليمي",
        "pagesCount": 1
    },
    {
        "id": "9454",
        "lat": "21.444849",
        "lng": "39.8374870000001",
        "placeId": "1",
        "placeName": "مسجد واسم الروقي",
        "pagesCount": 1
    },
    {
        "id": "9003",
        "lat": "21.43352458",
        "lng": "39.8483021340001",
        "placeId": "1",
        "placeName": "مسجد الأميره منيرة",
        "pagesCount": 1
    },
    {
        "id": "9061",
        "lat": "21.4444696250001",
        "lng": "39.838525589",
        "placeId": "1",
        "placeName": "مسجد الأمير تركي العبد الله",
        "pagesCount": 1
    },
    {
        "id": "9715",
        "lat": "21.448827464",
        "lng": "39.82303432",
        "placeId": "1",
        "placeName": "مسجد صالح الضبيان",
        "pagesCount": 1
    },
    {
        "id": "10084",
        "lat": "21.39900275",
        "lng": "39.8154167480001",
        "placeId": "1",
        "placeName": "مسجد العزيزية",
        "pagesCount": 1
    },
    {
        "id": "9294",
        "lat": "21.4249649880001",
        "lng": "39.796009",
        "placeId": "1",
        "placeName": "مسجد محمد إسماعيل مياجان",
        "pagesCount": 1
    },
    {
        "id": "10066",
        "lat": "21.4153313150001",
        "lng": "39.7973289920001",
        "placeId": "1",
        "placeName": "مسجد ارمان هوساوي",
        "pagesCount": 1
    },
    {
        "id": "9805",
        "lat": "21.398626795",
        "lng": "39.8163613940001",
        "placeId": "1",
        "placeName": "مسجد شريف منيع العبدلي",
        "pagesCount": 1
    },
    {
        "id": "10009",
        "lat": "21.3984864070001",
        "lng": "39.81690867",
        "placeId": "1",
        "placeName": "مسجد خالد بن الوليد",
        "pagesCount": 1
    },
    {
        "id": "9125",
        "lat": "21.4405238140001",
        "lng": "39.843971078",
        "placeId": "1",
        "placeName": "مسجد الكعكي",
        "pagesCount": 1
    },
    {
        "id": "9841",
        "lat": "21.415797689",
        "lng": "39.7969863480001",
        "placeId": "1",
        "placeName": "مسجد أزهر عمر أزهر",
        "pagesCount": 1
    },
    {
        "id": "9197",
        "lat": "21.4490860700001",
        "lng": "39.8212369440001",
        "placeId": "1",
        "placeName": "مسجد سليم الصاعدي",
        "pagesCount": 1
    },
    {
        "id": "9005",
        "lat": "21.422464936",
        "lng": "39.795599931",
        "placeId": "1",
        "placeName": "مسجد الاميرة الجوهرة",
        "pagesCount": 1
    },
    {
        "id": "10112",
        "lat": "21.4165328240001",
        "lng": "39.7965028420001",
        "placeId": "1",
        "placeName": "مسجد ادم",
        "pagesCount": 1
    },
    {
        "id": "9753",
        "lat": "21.4140720400001",
        "lng": "39.7973065080001",
        "placeId": "1",
        "placeName": "مسجد الرحمة",
        "pagesCount": 1
    },
    {
        "id": "9441",
        "lat": "21.4283675660001",
        "lng": "39.7959294450001",
        "placeId": "1",
        "placeName": "مسجد الشيخ محمد حامدابو نواس",
        "pagesCount": 1
    },
    {
        "id": "10015",
        "lat": "21.3988752170001",
        "lng": "39.81399585",
        "placeId": "1",
        "placeName": "مسجد النور الاهلية",
        "pagesCount": 1
    },
    {
        "id": "9256",
        "lat": "21.417943291",
        "lng": "39.795945117",
        "placeId": "1",
        "placeName": "مسجد ليلة القدر",
        "pagesCount": 1
    },
    {
        "id": "9656",
        "lat": "21.447848869",
        "lng": "39.8131973770001",
        "placeId": "1",
        "placeName": "مسجد معتاد بن سالم",
        "pagesCount": 1
    },
    {
        "id": "9911",
        "lat": "21.4150952730001",
        "lng": "39.7966265740001",
        "placeId": "1",
        "placeName": "مسجد عبد الله حبيب الرحمن",
        "pagesCount": 1
    },
    {
        "id": "9216",
        "lat": "21.398286532",
        "lng": "39.81510028",
        "placeId": "1",
        "placeName": "مسجد سليمان الخياط",
        "pagesCount": 1
    },
    {
        "id": "9509",
        "lat": "21.4050237810001",
        "lng": "39.803202631",
        "placeId": "1",
        "placeName": "مسجد فاطمه العيدروس",
        "pagesCount": 1
    },
    {
        "id": "8774",
        "lat": "21.416485235",
        "lng": "39.7961340260001",
        "placeId": "1",
        "placeName": "مسجد يوسف هوساوي",
        "pagesCount": 1
    },
    {
        "id": "9802",
        "lat": "21.4241851090001",
        "lng": "39.7951400760001",
        "placeId": "1",
        "placeName": "مسجد الزيتونة",
        "pagesCount": 1
    },
    {
        "id": "9564",
        "lat": "21.447046277",
        "lng": "39.8109756740001",
        "placeId": "1",
        "placeName": "مسجد السندي",
        "pagesCount": 1
    },
    {
        "id": "9846",
        "lat": "21.4232830010001",
        "lng": "39.7951170000001",
        "placeId": "1",
        "placeName": "مسجد حفصة",
        "pagesCount": 1
    },
    {
        "id": "8924",
        "lat": "21.431499203",
        "lng": "39.7963222340001",
        "placeId": "1",
        "placeName": "مسجد الشاكرين",
        "pagesCount": 1
    },
    {
        "id": "9440",
        "lat": "21.4281193940001",
        "lng": "39.7954118700001",
        "placeId": "1",
        "placeName": "مسجد صالح الجهني",
        "pagesCount": 1
    },
    {
        "id": "9461",
        "lat": "21.4060818520001",
        "lng": "39.8019104260001",
        "placeId": "1",
        "placeName": "مسجد رقية بنت عبد الرازق",
        "pagesCount": 1
    },
    {
        "id": "8784",
        "lat": "21.413728819",
        "lng": "39.7969113010001",
        "placeId": "1",
        "placeName": "مسجد حامد سنيدي",
        "pagesCount": 1
    },
    {
        "id": "9085",
        "lat": "21.435257904",
        "lng": "39.848817533",
        "placeId": "1",
        "placeName": "مسجد بن عجلان 117",
        "pagesCount": 1
    },
    {
        "id": "9422",
        "lat": "21.4188151160001",
        "lng": "39.7953177640001",
        "placeId": "1",
        "placeName": "مسجد محمد بكر فلاته",
        "pagesCount": 1
    },
    {
        "id": "8936",
        "lat": "21.4326130010001",
        "lng": "39.7965060010001",
        "placeId": "1",
        "placeName": "مسجد الجود",
        "pagesCount": 1
    },
    {
        "id": "9905",
        "lat": "21.4502227260001",
        "lng": "39.8236149250001",
        "placeId": "1",
        "placeName": "مسجد الامير متعب",
        "pagesCount": 1
    },
    {
        "id": "9483",
        "lat": "21.428991673",
        "lng": "39.7951376180001",
        "placeId": "1",
        "placeName": "مسجد بدرية عبد الرازق",
        "pagesCount": 1
    },
    {
        "id": "9969",
        "lat": "21.449455243",
        "lng": "39.8161362490001",
        "placeId": "1",
        "placeName": "مسجد أحمد صويلح اللهيبي",
        "pagesCount": 1
    },
    {
        "id": "10082",
        "lat": "21.447914305",
        "lng": "39.8112612090001",
        "placeId": "1",
        "placeName": "مسجد الفتح",
        "pagesCount": 1
    },
    {
        "id": "9517",
        "lat": "21.396726099",
        "lng": "39.8192373260001",
        "placeId": "1",
        "placeName": "مسجد أبو بكر الصديق رضي الله عنه",
        "pagesCount": 1
    },
    {
        "id": "9190",
        "lat": "21.397523915",
        "lng": "39.8150455520001",
        "placeId": "1",
        "placeName": "مسجد دار القران",
        "pagesCount": 1
    },
    {
        "id": "9861",
        "lat": "21.4254813800001",
        "lng": "39.7941639760001",
        "placeId": "1",
        "placeName": "مسجد نور الايمان",
        "pagesCount": 1
    },
    {
        "id": "9614",
        "lat": "21.45025",
        "lng": "39.82874",
        "placeId": "1",
        "placeName": "مسجد عويض السلمي",
        "pagesCount": 1
    },
    {
        "id": "9755",
        "lat": "21.413797824",
        "lng": "39.7958714760001",
        "placeId": "1",
        "placeName": "مسجد معاذ بن جبل",
        "pagesCount": 1
    },
    {
        "id": "9222",
        "lat": "21.4236186960001",
        "lng": "39.7939047180001",
        "placeId": "1",
        "placeName": "مسجد يحى المرطونى",
        "pagesCount": 1
    },
    {
        "id": "9195",
        "lat": "21.443106254",
        "lng": "39.8027658300001",
        "placeId": "1",
        "placeName": "مسجد الشؤون الصحية",
        "pagesCount": 1
    },
    {
        "id": "9633",
        "lat": "21.447571662",
        "lng": "39.809098756",
        "placeId": "1",
        "placeName": "مسجد صالح جمال",
        "pagesCount": 1
    },
    {
        "id": "9054",
        "lat": "21.414245163",
        "lng": "39.7954503120001",
        "placeId": "1",
        "placeName": "مسجد محمد مسعود",
        "pagesCount": 1
    },
    {
        "id": "9662",
        "lat": "21.440041308",
        "lng": "39.847166847",
        "placeId": "1",
        "placeName": "مسجد الكويتي",
        "pagesCount": 1
    },
    {
        "id": "9459",
        "lat": "21.4167697140001",
        "lng": "39.794484788",
        "placeId": "1",
        "placeName": "مسجد حمزه بعنيوى",
        "pagesCount": 1
    },
    {
        "id": "9130",
        "lat": "21.441382123",
        "lng": "39.84608151",
        "placeId": "1",
        "placeName": "مسجد عيسى سيام",
        "pagesCount": 1
    },
    {
        "id": "9991",
        "lat": "21.39654897",
        "lng": "39.815945227",
        "placeId": "1",
        "placeName": "مسجد قباء بحي العلماء",
        "pagesCount": 1
    },
    {
        "id": "9315",
        "lat": "21.39601464",
        "lng": "39.818580594",
        "placeId": "1",
        "placeName": "مسجد عمر بن الخطاب",
        "pagesCount": 1
    },
    {
        "id": "9360",
        "lat": "21.440690676",
        "lng": "39.8467721850001",
        "placeId": "1",
        "placeName": "مسجد الإصيفر",
        "pagesCount": 1
    },
    {
        "id": "9660",
        "lat": "21.4006401340001",
        "lng": "39.8060034440001",
        "placeId": "1",
        "placeName": "مسجد عطية الزهراني",
        "pagesCount": 1
    },
    {
        "id": "9308",
        "lat": "21.4433656950001",
        "lng": "39.844472184",
        "placeId": "1",
        "placeName": "مسجد محمد حنش",
        "pagesCount": 1
    },
    {
        "id": "8869",
        "lat": "21.4465335670001",
        "lng": "39.8063615720001",
        "placeId": "1",
        "placeName": "مسجد الاميرة العنود",
        "pagesCount": 1
    },
    {
        "id": "9229",
        "lat": "21.425280743",
        "lng": "39.7933168260001",
        "placeId": "1",
        "placeName": "مسجد حلف العمرى",
        "pagesCount": 1
    },
    {
        "id": "9274",
        "lat": "21.396158003",
        "lng": "39.8162618100001",
        "placeId": "1",
        "placeName": "مسجد العثمانية",
        "pagesCount": 1
    },
    {
        "id": "9390",
        "lat": "21.395917083",
        "lng": "39.8172701070001",
        "placeId": "1",
        "placeName": "مسجد السبيعي",
        "pagesCount": 1
    },
    {
        "id": "9918",
        "lat": "21.3998085120001",
        "lng": "39.8069885410001",
        "placeId": "1",
        "placeName": "مسجد رباني",
        "pagesCount": 1
    },
    {
        "id": "9625",
        "lat": "21.428747",
        "lng": "39.85303",
        "placeId": "1",
        "placeName": "مسجد عبدالله بن عبيد",
        "pagesCount": 1
    },
    {
        "id": "8898",
        "lat": "21.395875442",
        "lng": "39.816892367",
        "placeId": "1",
        "placeName": "مسجد الاركانية",
        "pagesCount": 1
    },
    {
        "id": "8946",
        "lat": "21.3963019820001",
        "lng": "39.8148259280001",
        "placeId": "1",
        "placeName": "مسجد سعيد القحطاني",
        "pagesCount": 1
    },
    {
        "id": "9580",
        "lat": "21.396508996",
        "lng": "39.8139167360001",
        "placeId": "1",
        "placeName": "مسجد سعيد المالكي",
        "pagesCount": 1
    },
    {
        "id": "8903",
        "lat": "21.4267300000001",
        "lng": "39.7931570000001",
        "placeId": "1",
        "placeName": "مسجد الاميرة حسينة",
        "pagesCount": 1
    },
    {
        "id": "9479",
        "lat": "21.4517374280001",
        "lng": "39.822525849",
        "placeId": "1",
        "placeName": "مسجد ضيف الله الحربي",
        "pagesCount": 1
    },
    {
        "id": "9475",
        "lat": "21.437999044",
        "lng": "39.797259427",
        "placeId": "1",
        "placeName": "مسجد سليمان الحازمي",
        "pagesCount": 1
    },
    {
        "id": "8813",
        "lat": "21.4278160910001",
        "lng": "39.7932651990001",
        "placeId": "1",
        "placeName": "مسجد أحمد مرزا",
        "pagesCount": 1
    },
    {
        "id": "8809",
        "lat": "21.3958136900001",
        "lng": "39.830459929",
        "placeId": "1",
        "placeName": "مسجد الخميم",
        "pagesCount": 1
    },
    {
        "id": "9783",
        "lat": "21.3954388110001",
        "lng": "39.8181499120001",
        "placeId": "1",
        "placeName": "مسجد الفردوس",
        "pagesCount": 1
    },
    {
        "id": "9739",
        "lat": "21.4009757370001",
        "lng": "39.8046774900001",
        "placeId": "1",
        "placeName": "مسجد عبدالرحمن بن عبدالله اليمنى",
        "pagesCount": 1
    },
    {
        "id": "9997",
        "lat": "21.427598",
        "lng": "39.8535570000001",
        "placeId": "1",
        "placeName": "مسجد الراجحي",
        "pagesCount": 1
    },
    {
        "id": "9488",
        "lat": "21.448327727",
        "lng": "39.8380611700001",
        "placeId": "1",
        "placeName": "مسجد مطلق المورقي",
        "pagesCount": 1
    },
    {
        "id": "8872",
        "lat": "21.432754819",
        "lng": "39.8522058200001",
        "placeId": "1",
        "placeName": "مسجد عبدالله بن حميد",
        "pagesCount": 1
    },
    {
        "id": "9910",
        "lat": "21.4002051690001",
        "lng": "39.8056755550001",
        "placeId": "1",
        "placeName": "مسجد عبد اللطيف سليم",
        "pagesCount": 1
    },
    {
        "id": "9602",
        "lat": "21.426681",
        "lng": "39.7929150000001",
        "placeId": "1",
        "placeName": "مسجد الاميره حسينه",
        "pagesCount": 1
    },
    {
        "id": "10023",
        "lat": "21.44530216",
        "lng": "39.80368049",
        "placeId": "1",
        "placeName": "مسجد بدر",
        "pagesCount": 1
    },
    {
        "id": "9321",
        "lat": "21.452020868",
        "lng": "39.824195886",
        "placeId": "1",
        "placeName": "مسجد الرضوان",
        "pagesCount": 1
    },
    {
        "id": "9312",
        "lat": "21.39954463",
        "lng": "39.8063822550001",
        "placeId": "1",
        "placeName": "مسجد النور",
        "pagesCount": 1
    },
    {
        "id": "10092",
        "lat": "21.452243992",
        "lng": "39.824879949",
        "placeId": "1",
        "placeName": "مسجد سليم سالم اللهيبي",
        "pagesCount": 1
    },
    {
        "id": "8938",
        "lat": "21.435176083",
        "lng": "39.7950406670001",
        "placeId": "1",
        "placeName": "مسجد عمر باريان",
        "pagesCount": 1
    },
    {
        "id": "9640",
        "lat": "21.4266783800001",
        "lng": "39.854211616",
        "placeId": "1",
        "placeName": "مسجد عبدالله بن حميد",
        "pagesCount": 1
    },
    {
        "id": "9723",
        "lat": "21.4166501300001",
        "lng": "39.8536870790001",
        "placeId": "1",
        "placeName": "مسجد العزيزية الجنوبية",
        "pagesCount": 1
    },
    {
        "id": "8751",
        "lat": "21.428425498",
        "lng": "39.792465733",
        "placeId": "1",
        "placeName": "مسجد حسين الحربي",
        "pagesCount": 1
    },
    {
        "id": "9076",
        "lat": "21.395328374",
        "lng": "39.8143482180001",
        "placeId": "1",
        "placeName": "مسجد النور",
        "pagesCount": 1
    },
    {
        "id": "9836",
        "lat": "21.4499399640001",
        "lng": "39.8368866500001",
        "placeId": "1",
        "placeName": "مسجد عثمان بن عفان ",
        "pagesCount": 1
    },
    {
        "id": "8881",
        "lat": "21.4297649530001",
        "lng": "39.85416",
        "placeId": "1",
        "placeName": "مسجد محمد الجاسر",
        "pagesCount": 1
    },
    {
        "id": "9192",
        "lat": "21.3949146160001",
        "lng": "39.815815394",
        "placeId": "1",
        "placeName": "مسجد المحيميد",
        "pagesCount": 1
    },
    {
        "id": "9309",
        "lat": "21.3957981990001",
        "lng": "39.8126576110001",
        "placeId": "1",
        "placeName": "مسجد فوز النكاسة",
        "pagesCount": 1
    },
    {
        "id": "9409",
        "lat": "21.3979861980001",
        "lng": "39.8075101210001",
        "placeId": "1",
        "placeName": "مسجد سليمان خياط",
        "pagesCount": 1
    },
    {
        "id": "9496",
        "lat": "21.397450819",
        "lng": "39.8084785620001",
        "placeId": "1",
        "placeName": "مسجد العبادلة",
        "pagesCount": 1
    },
    {
        "id": "9751",
        "lat": "21.3985847120001",
        "lng": "39.806354259",
        "placeId": "1",
        "placeName": "مسجد خليلة",
        "pagesCount": 1
    },
    {
        "id": "8798",
        "lat": "21.4257342",
        "lng": "39.8549427",
        "placeId": "1",
        "placeName": "مسجد حامد العصيمي",
        "pagesCount": 1
    },
    {
        "id": "9267",
        "lat": "21.3996345730001",
        "lng": "39.804611698",
        "placeId": "1",
        "placeName": "مسجد الرحمانية",
        "pagesCount": 1
    },
    {
        "id": "10063",
        "lat": "21.395386909",
        "lng": "39.813460203",
        "placeId": "1",
        "placeName": "مسجد التقوي",
        "pagesCount": 1
    },
    {
        "id": "9435",
        "lat": "21.4492083430001",
        "lng": "39.8388606350001",
        "placeId": "1",
        "placeName": "مسجد آل ثاني",
        "pagesCount": 1
    },
    {
        "id": "9485",
        "lat": "21.4498845470001",
        "lng": "39.8092491410001",
        "placeId": "1",
        "placeName": "مسجد السعدى",
        "pagesCount": 1
    },
    {
        "id": "9319",
        "lat": "21.4191076380001",
        "lng": "39.8549566790001",
        "placeId": "1",
        "placeName": "مسجد القطري",
        "pagesCount": 1
    },
    {
        "id": "9246",
        "lat": "21.395471023",
        "lng": "39.812407767",
        "placeId": "1",
        "placeName": "مسجد الوادي النكاسة",
        "pagesCount": 1
    },
    {
        "id": "9984",
        "lat": "21.4530705940001",
        "lng": "39.826153934",
        "placeId": "1",
        "placeName": "مسجد علي منشط",
        "pagesCount": 1
    },
    {
        "id": "9784",
        "lat": "21.4424409690001",
        "lng": "39.847991",
        "placeId": "1",
        "placeName": "مسجد بن شلويح",
        "pagesCount": 1
    },
    {
        "id": "8816",
        "lat": "21.4438789770001",
        "lng": "39.846629405",
        "placeId": "1",
        "placeName": "مسجد سعد الجودي",
        "pagesCount": 1
    },
    {
        "id": "9696",
        "lat": "21.4326162020001",
        "lng": "39.792835811",
        "placeId": "1",
        "placeName": "مسجد الأميرة شيخة",
        "pagesCount": 1
    },
    {
        "id": "9408",
        "lat": "21.451156558",
        "lng": "39.811426344",
        "placeId": "1",
        "placeName": "مسجد محمد اللهيبي",
        "pagesCount": 1
    },
    {
        "id": "8922",
        "lat": "21.3986447180001",
        "lng": "39.805194666",
        "placeId": "1",
        "placeName": "مسجد عبد الواحد حماد",
        "pagesCount": 1
    },
    {
        "id": "9371",
        "lat": "21.399506767",
        "lng": "39.8038716130001",
        "placeId": "1",
        "placeName": "مسجد  امين",
        "pagesCount": 1
    },
    {
        "id": "10106",
        "lat": "21.427011781",
        "lng": "39.791277022",
        "placeId": "1",
        "placeName": "مسجد عايد الحربي",
        "pagesCount": 1
    },
    {
        "id": "9466",
        "lat": "21.3936978260001",
        "lng": "39.8287137020001",
        "placeId": "1",
        "placeName": "مسجد هلال ماطر الحربي",
        "pagesCount": 1
    },
    {
        "id": "9108",
        "lat": "21.4507078450001",
        "lng": "39.8371940650001",
        "placeId": "1",
        "placeName": "مسجد عطية الزهراني",
        "pagesCount": 1
    },
    {
        "id": "9089",
        "lat": "21.3943226060001",
        "lng": "39.8146751560001",
        "placeId": "1",
        "placeName": "مسجد اسماعيل فقية",
        "pagesCount": 1
    },
    {
        "id": "9527",
        "lat": "21.4468360490001",
        "lng": "39.8028389130001",
        "placeId": "1",
        "placeName": "مسجد سعيد بادريق",
        "pagesCount": 1
    },
    {
        "id": "8799",
        "lat": "21.4463365120001",
        "lng": "39.8445994360001",
        "placeId": "1",
        "placeName": "مسجد علي القرشي 538",
        "pagesCount": 1
    },
    {
        "id": "9956",
        "lat": "21.451732668",
        "lng": "39.8349482570001",
        "placeId": "1",
        "placeName": "مسجد الغامدي",
        "pagesCount": 1
    },
    {
        "id": "10109",
        "lat": "21.4234175560001",
        "lng": "39.8559903760001",
        "placeId": "1",
        "placeName": "مسجد الشيخ ابن باز",
        "pagesCount": 1
    },
    {
        "id": "10003",
        "lat": "21.398368701",
        "lng": "39.8049353050001",
        "placeId": "1",
        "placeName": "مسجد السروري",
        "pagesCount": 1
    },
    {
        "id": "9389",
        "lat": "21.4355770060001",
        "lng": "39.7934235060001",
        "placeId": "1",
        "placeName": "مسجد الأخضر",
        "pagesCount": 1
    },
    {
        "id": "8859",
        "lat": "21.450560635",
        "lng": "39.8383309720001",
        "placeId": "1",
        "placeName": "مسجد أحمد بن عواض المسعودي",
        "pagesCount": 1
    },
    {
        "id": "9048",
        "lat": "21.4484512380001",
        "lng": "39.8046310870001",
        "placeId": "1",
        "placeName": "مسجد الرحمه",
        "pagesCount": 1
    },
    {
        "id": "9396",
        "lat": "21.4268799720001",
        "lng": "39.8559895330001",
        "placeId": "1",
        "placeName": "مسجد فايز الحارثي",
        "pagesCount": 1
    },
    {
        "id": "10027",
        "lat": "21.442293469",
        "lng": "39.8491989950001",
        "placeId": "1",
        "placeName": "مسجد علي مطلق",
        "pagesCount": 1
    },
    {
        "id": "9493",
        "lat": "21.394162706",
        "lng": "39.8137766720001",
        "placeId": "1",
        "placeName": "مسجد الخياط",
        "pagesCount": 1
    },
    {
        "id": "8921",
        "lat": "21.3983180180001",
        "lng": "39.8045455490001",
        "placeId": "1",
        "placeName": "مسجد عمر بن الخطاب",
        "pagesCount": 1
    },
    {
        "id": "8767",
        "lat": "21.39773681",
        "lng": "39.805303597",
        "placeId": "1",
        "placeName": "مسجد دليل الرحمن",
        "pagesCount": 1
    },
    {
        "id": "9021",
        "lat": "21.403089396",
        "lng": "39.798592779",
        "placeId": "1",
        "placeName": "مسجد الفردوس",
        "pagesCount": 1
    },
    {
        "id": "9025",
        "lat": "21.4541800000001",
        "lng": "39.82417",
        "placeId": "1",
        "placeName": "مسجد الحسن والحسين",
        "pagesCount": 1
    },
    {
        "id": "9387",
        "lat": "21.4461217690001",
        "lng": "39.8457313070001",
        "placeId": "1",
        "placeName": "مسجد عبدالله بن عقيل",
        "pagesCount": 1
    },
    {
        "id": "9473",
        "lat": "21.44411554",
        "lng": "39.798852604",
        "placeId": "1",
        "placeName": "مسجد الكويتي",
        "pagesCount": 1
    },
    {
        "id": "9649",
        "lat": "21.452804573",
        "lng": "39.8133946350001",
        "placeId": "1",
        "placeName": "مسجد أهلي",
        "pagesCount": 1
    },
    {
        "id": "9178",
        "lat": "21.444430513",
        "lng": "39.847751284",
        "placeId": "1",
        "placeName": "مسجد بن ملبس 103",
        "pagesCount": 1
    },
    {
        "id": "9646",
        "lat": "21.3978415070001",
        "lng": "39.8044051140001",
        "placeId": "1",
        "placeName": "مسجد اسكندر",
        "pagesCount": 1
    },
    {
        "id": "9948",
        "lat": "21.452053667",
        "lng": "39.836389051",
        "placeId": "1",
        "placeName": "مسجد عابد القرشي",
        "pagesCount": 1
    },
    {
        "id": "9139",
        "lat": "21.432823668",
        "lng": "39.791518674",
        "placeId": "1",
        "placeName": "مسجد عبد الرحمن محمد صالح ريس",
        "pagesCount": 1
    },
    {
        "id": "9555",
        "lat": "21.4506115410001",
        "lng": "39.839765642",
        "placeId": "1",
        "placeName": "مسجد التعاون",
        "pagesCount": 1
    },
    {
        "id": "9064",
        "lat": "21.3966170360001",
        "lng": "39.806157349",
        "placeId": "1",
        "placeName": "مسجد العبدلي",
        "pagesCount": 1
    },
    {
        "id": "9392",
        "lat": "21.446480401",
        "lng": "39.800580145",
        "placeId": "1",
        "placeName": "مسجد القدس",
        "pagesCount": 1
    },
    {
        "id": "9084",
        "lat": "21.4285550000001",
        "lng": "39.856612",
        "placeId": "1",
        "placeName": "مسجد الأمير مشعل",
        "pagesCount": 1
    },
    {
        "id": "8968",
        "lat": "21.3990230000001",
        "lng": "39.802129",
        "placeId": "1",
        "placeName": "مسجد هيفاء صادق",
        "pagesCount": 1
    },
    {
        "id": "8994",
        "lat": "21.4455330000001",
        "lng": "39.799409",
        "placeId": "1",
        "placeName": "مسجد بن صويلح",
        "pagesCount": 1
    },
    {
        "id": "9099",
        "lat": "21.4265411660001",
        "lng": "39.7897523710001",
        "placeId": "1",
        "placeName": "مسجد الوزه",
        "pagesCount": 1
    },
    {
        "id": "8958",
        "lat": "21.4535122240001",
        "lng": "39.8134170010001",
        "placeId": "1",
        "placeName": "مسجد الإمام مسلم",
        "pagesCount": 1
    },
    {
        "id": "9541",
        "lat": "21.42472507",
        "lng": "39.857190815",
        "placeId": "1",
        "placeName": "مسجد القطان",
        "pagesCount": 1
    },
    {
        "id": "9148",
        "lat": "21.4419957870001",
        "lng": "39.7959444680001",
        "placeId": "1",
        "placeName": "مسجد حماده خوج",
        "pagesCount": 1
    },
    {
        "id": "8829",
        "lat": "21.391843162",
        "lng": "39.8253010270001",
        "placeId": "1",
        "placeName": "مسجد زمزم",
        "pagesCount": 1
    },
    {
        "id": "9112",
        "lat": "21.413518584",
        "lng": "39.791086379",
        "placeId": "1",
        "placeName": "مسجد الامير حصة السديري",
        "pagesCount": 1
    },
    {
        "id": "9394",
        "lat": "21.4494157240001",
        "lng": "39.803938363",
        "placeId": "1",
        "placeName": "مسجد ابراهيم القمانى",
        "pagesCount": 1
    },
    {
        "id": "8868",
        "lat": "21.401074889",
        "lng": "39.7992327690001",
        "placeId": "1",
        "placeName": "مسجد ابراهيم الربيعان",
        "pagesCount": 1
    },
    {
        "id": "9585",
        "lat": "21.3968292000001",
        "lng": "39.8048208290001",
        "placeId": "1",
        "placeName": "مسجد محمد الحكمى",
        "pagesCount": 1
    },
    {
        "id": "9127",
        "lat": "21.3925444340001",
        "lng": "39.815442294",
        "placeId": "1",
        "placeName": "مسجد الاركان",
        "pagesCount": 1
    },
    {
        "id": "8814",
        "lat": "21.4530911900001",
        "lng": "39.8108701940001",
        "placeId": "1",
        "placeName": "مسجد حمرة أل ثانى",
        "pagesCount": 1
    },
    {
        "id": "9174",
        "lat": "21.445481111",
        "lng": "39.8481261630001",
        "placeId": "1",
        "placeName": "مسجد عبدالله العمري",
        "pagesCount": 1
    },
    {
        "id": "9766",
        "lat": "21.4356361070001",
        "lng": "39.855091035",
        "placeId": "1",
        "placeName": "مسجد محمد سباك",
        "pagesCount": 1
    },
    {
        "id": "9562",
        "lat": "21.4522200000001",
        "lng": "39.80819",
        "placeId": "1",
        "placeName": "مسجد الشهداء",
        "pagesCount": 1
    },
    {
        "id": "8849",
        "lat": "21.4467885220001",
        "lng": "39.8470371700001",
        "placeId": "1",
        "placeName": "مسجد الهمزاني 105",
        "pagesCount": 1
    },
    {
        "id": "9354",
        "lat": "21.451649031",
        "lng": "39.8405172770001",
        "placeId": "1",
        "placeName": "مسجد عبدالعزيز البراك",
        "pagesCount": 1
    },
    {
        "id": "9732",
        "lat": "21.391994303",
        "lng": "39.814425789",
        "placeId": "1",
        "placeName": "مسجد الإحسان",
        "pagesCount": 1
    },
    {
        "id": "9777",
        "lat": "21.439667813",
        "lng": "39.7930226890001",
        "placeId": "1",
        "placeName": "مسجد الجابري",
        "pagesCount": 1
    },
    {
        "id": "10100",
        "lat": "21.4531170000001",
        "lng": "39.808933",
        "placeId": "1",
        "placeName": "مسجد محطة",
        "pagesCount": 1
    },
    {
        "id": "10097",
        "lat": "21.406141163",
        "lng": "39.7935873810001",
        "placeId": "1",
        "placeName": "مسجد نايف الشريف",
        "pagesCount": 1
    },
    {
        "id": "9915",
        "lat": "21.4453660360001",
        "lng": "39.849391063",
        "placeId": "1",
        "placeName": "مسجد محفوظ القرشي",
        "pagesCount": 1
    },
    {
        "id": "9420",
        "lat": "21.4041329290001",
        "lng": "39.7949786140001",
        "placeId": "1",
        "placeName": "مسجد الهوساوي",
        "pagesCount": 1
    },
    {
        "id": "9551",
        "lat": "21.447388287",
        "lng": "39.7994040140001",
        "placeId": "1",
        "placeName": "مسجد بشيبش المحامدي",
        "pagesCount": 1
    },
    {
        "id": "10043",
        "lat": "21.446028687",
        "lng": "39.8489120620001",
        "placeId": "1",
        "placeName": "مسجد سعد بن خويتم",
        "pagesCount": 1
    },
    {
        "id": "9853",
        "lat": "21.431281063",
        "lng": "39.857612218",
        "placeId": "1",
        "placeName": "مسجد عبدالله بن حميد ",
        "pagesCount": 1
    },
    {
        "id": "9426",
        "lat": "21.396595258",
        "lng": "39.803026915",
        "placeId": "1",
        "placeName": "مسجد  محطة الخير",
        "pagesCount": 1
    },
    {
        "id": "9887",
        "lat": "21.4516320270001",
        "lng": "39.8416447280001",
        "placeId": "1",
        "placeName": "مسجد مالك بن أنس",
        "pagesCount": 1
    },
    {
        "id": "9670",
        "lat": "21.4017348880001",
        "lng": "39.796724307",
        "placeId": "1",
        "placeName": "مسجد النايته",
        "pagesCount": 1
    },
    {
        "id": "9144",
        "lat": "21.453156898",
        "lng": "39.838790284",
        "placeId": "1",
        "placeName": "مسجد هاجر السلمي",
        "pagesCount": 1
    },
    {
        "id": "8874",
        "lat": "21.4564801700001",
        "lng": "39.823791855",
        "placeId": "1",
        "placeName": "مسجد دغش بن طلال",
        "pagesCount": 1
    },
    {
        "id": "9374",
        "lat": "21.4489717280001",
        "lng": "39.845949589",
        "placeId": "1",
        "placeName": "مسجد حسن سقا 106",
        "pagesCount": 1
    },
    {
        "id": "9276",
        "lat": "21.4507318770001",
        "lng": "39.843723088",
        "placeId": "1",
        "placeName": "مسجد محمد صالح الأنصاري",
        "pagesCount": 1
    },
    {
        "id": "9464",
        "lat": "21.4514327480001",
        "lng": "39.842626255",
        "placeId": "1",
        "placeName": "مسجد التوحيد",
        "pagesCount": 1
    },
    {
        "id": "9468",
        "lat": "21.412912749",
        "lng": "39.789430548",
        "placeId": "1",
        "placeName": "مسجد بر الوالدين ",
        "pagesCount": 1
    },
    {
        "id": "8909",
        "lat": "21.4548869000001",
        "lng": "39.835440998",
        "placeId": "1",
        "placeName": "مسجد الأمير خالد بن تركي",
        "pagesCount": 1
    },
    {
        "id": "8931",
        "lat": "21.4337571680001",
        "lng": "39.7892377850001",
        "placeId": "1",
        "placeName": "مسجد الثياب",
        "pagesCount": 1
    },
    {
        "id": "9845",
        "lat": "21.446942908",
        "lng": "39.8489146570001",
        "placeId": "1",
        "placeName": "مسجد عبدالرحمن الطواله",
        "pagesCount": 1
    },
    {
        "id": "9220",
        "lat": "21.442639947",
        "lng": "39.7939062730001",
        "placeId": "1",
        "placeName": "مسجد احمد الغزاوي",
        "pagesCount": 1
    },
    {
        "id": "9589",
        "lat": "21.4503855130001",
        "lng": "39.802028179",
        "placeId": "1",
        "placeName": "مسجد التوحيد",
        "pagesCount": 1
    },
    {
        "id": "8802",
        "lat": "21.422764957",
        "lng": "39.787393663",
        "placeId": "1",
        "placeName": "مسجد عبدالخالق الغامدي",
        "pagesCount": 1
    },
    {
        "id": "9033",
        "lat": "21.4152969310001",
        "lng": "39.8583022020001",
        "placeId": "1",
        "placeName": "مسجد الراجحي",
        "pagesCount": 1
    },
    {
        "id": "9297",
        "lat": "21.427986144",
        "lng": "39.7876917080001",
        "placeId": "1",
        "placeName": "مسجد الرحمة",
        "pagesCount": 1
    },
    {
        "id": "8971",
        "lat": "21.44872407",
        "lng": "39.799600932",
        "placeId": "1",
        "placeName": "مسجد عايد المحمادي",
        "pagesCount": 1
    },
    {
        "id": "9855",
        "lat": "21.453915791",
        "lng": "39.8388740180001",
        "placeId": "1",
        "placeName": "مسجد يحي مومنة",
        "pagesCount": 1
    },
    {
        "id": "8820",
        "lat": "21.452806482",
        "lng": "39.8055262450001",
        "placeId": "1",
        "placeName": "مسجد حسن بنانى",
        "pagesCount": 1
    },
    {
        "id": "9041",
        "lat": "21.439155967",
        "lng": "39.7912359050001",
        "placeId": "1",
        "placeName": "مسجد النور",
        "pagesCount": 1
    },
    {
        "id": "9469",
        "lat": "21.4567520410001",
        "lng": "39.8172735380001",
        "placeId": "1",
        "placeName": "مسجد مبارك الصاعدي",
        "pagesCount": 1
    },
    {
        "id": "9159",
        "lat": "21.4535441350001",
        "lng": "39.806817423",
        "placeId": "1",
        "placeName": "مسجد سعد بن زرارة",
        "pagesCount": 1
    },
    {
        "id": "9775",
        "lat": "21.4558026390001",
        "lng": "39.8128281150001",
        "placeId": "1",
        "placeName": "مسجد بخيت الصاعدي",
        "pagesCount": 1
    },
    {
        "id": "8974",
        "lat": "21.4449840130001",
        "lng": "39.795339589",
        "placeId": "1",
        "placeName": "مسجد على انصارى",
        "pagesCount": 1
    },
    {
        "id": "9813",
        "lat": "21.452848665",
        "lng": "39.841602123",
        "placeId": "1",
        "placeName": "مسجد أنس بن مالك",
        "pagesCount": 1
    },
    {
        "id": "9243",
        "lat": "21.389819635",
        "lng": "39.8173008910001",
        "placeId": "1",
        "placeName": "مسجد العبدلي",
        "pagesCount": 1
    },
    {
        "id": "10061",
        "lat": "21.4560528390001",
        "lng": "39.8339175990001",
        "placeId": "1",
        "placeName": "مسجد حسن الزهراني",
        "pagesCount": 1
    },
    {
        "id": "9013",
        "lat": "21.3898705550001",
        "lng": "39.8155222440001",
        "placeId": "1",
        "placeName": "مسجد ام النبع",
        "pagesCount": 1
    },
    {
        "id": "8810",
        "lat": "21.4329617240001",
        "lng": "39.858826032",
        "placeId": "1",
        "placeName": "مسجد عبدالحميد قطان",
        "pagesCount": 1
    },
    {
        "id": "9210",
        "lat": "21.4331748450001",
        "lng": "39.7879661220001",
        "placeId": "1",
        "placeName": "مسجد الجمعية الخيرية",
        "pagesCount": 1
    },
    {
        "id": "9347",
        "lat": "21.456226063",
        "lng": "39.8347170980001",
        "placeId": "1",
        "placeName": "مسجد حامد السلمي",
        "pagesCount": 1
    },
    {
        "id": "10012",
        "lat": "21.450783691",
        "lng": "39.84594321",
        "placeId": "1",
        "placeName": "مسجد التعاون",
        "pagesCount": 1
    },
    {
        "id": "9012",
        "lat": "21.4458309560001",
        "lng": "39.8515772530001",
        "placeId": "1",
        "placeName": "مسجد عواض القثامي",
        "pagesCount": 1
    },
    {
        "id": "9320",
        "lat": "21.38947842",
        "lng": "39.8164157320001",
        "placeId": "1",
        "placeName": "مسجد الفرقان",
        "pagesCount": 1
    },
    {
        "id": "9044",
        "lat": "21.4353062180001",
        "lng": "39.8582329820001",
        "placeId": "1",
        "placeName": "مسجد بن عبيد",
        "pagesCount": 1
    },
    {
        "id": "9980",
        "lat": "21.457198116",
        "lng": "39.815515265",
        "placeId": "1",
        "placeName": "مسجد علي الصاعدي",
        "pagesCount": 1
    },
    {
        "id": "9160",
        "lat": "21.4531291230001",
        "lng": "39.842702446",
        "placeId": "1",
        "placeName": "مسجد سالم العتيبي ",
        "pagesCount": 1
    },
    {
        "id": "9769",
        "lat": "21.3922026070001",
        "lng": "39.8399613650001",
        "placeId": "1",
        "placeName": "مسجد فوزية بخاري",
        "pagesCount": 1
    },
    {
        "id": "9363",
        "lat": "21.454974739",
        "lng": "39.8074867300001",
        "placeId": "1",
        "placeName": "مسجد محمد سقا",
        "pagesCount": 1
    },
    {
        "id": "9858",
        "lat": "21.4525534490001",
        "lng": "39.8440941470001",
        "placeId": "1",
        "placeName": "مسجد عبدالعزيز الحارثي",
        "pagesCount": 1
    },
    {
        "id": "9601",
        "lat": "21.399466922",
        "lng": "39.795938623",
        "placeId": "1",
        "placeName": "مسجد الكعكي",
        "pagesCount": 1
    },
    {
        "id": "8981",
        "lat": "21.438049205",
        "lng": "39.8576100780001",
        "placeId": "1",
        "placeName": "مسجد بن تركي",
        "pagesCount": 1
    },
    {
        "id": "9824",
        "lat": "21.4546339990001",
        "lng": "39.8060070000001",
        "placeId": "1",
        "placeName": "مسجد سريحان اللحياني",
        "pagesCount": 1
    },
    {
        "id": "8983",
        "lat": "21.4419890140001",
        "lng": "39.7912538590001",
        "placeId": "1",
        "placeName": "مسجد الشيخ محمد علي النشار",
        "pagesCount": 1
    },
    {
        "id": "9186",
        "lat": "21.4479797600001",
        "lng": "39.850467329",
        "placeId": "1",
        "placeName": "مسجد الاميرة",
        "pagesCount": 1
    },
    {
        "id": "9030",
        "lat": "21.451350984",
        "lng": "39.8466111230001",
        "placeId": "1",
        "placeName": "مسجد حربي الغامدي 705",
        "pagesCount": 1
    },
    {
        "id": "9404",
        "lat": "21.3909580000001",
        "lng": "39.8083319",
        "placeId": "1",
        "placeName": "مسجد اليغمور",
        "pagesCount": 1
    },
    {
        "id": "9228",
        "lat": "21.3937042860001",
        "lng": "39.8027013450001",
        "placeId": "1",
        "placeName": "مسجد عبد الرحمن بن عوف",
        "pagesCount": 1
    },
    {
        "id": "9798",
        "lat": "21.450738818",
        "lng": "39.8475944890001",
        "placeId": "1",
        "placeName": "مسجد ناهض المورقي",
        "pagesCount": 1
    },
    {
        "id": "9508",
        "lat": "21.4573341660001",
        "lng": "39.8344219270001",
        "placeId": "1",
        "placeName": "مسجد مسعود القحطاني",
        "pagesCount": 1
    },
    {
        "id": "9103",
        "lat": "21.412472349",
        "lng": "39.7870837470001",
        "placeId": "1",
        "placeName": "مسجد التوحيد",
        "pagesCount": 1
    },
    {
        "id": "8861",
        "lat": "21.4493062020001",
        "lng": "39.84956242",
        "placeId": "1",
        "placeName": "مسجد سلطان القرشي",
        "pagesCount": 1
    },
    {
        "id": "9530",
        "lat": "21.449889952",
        "lng": "39.8489681500001",
        "placeId": "1",
        "placeName": "مسجد عطية القرشي",
        "pagesCount": 1
    },
    {
        "id": "8743",
        "lat": "21.446683245",
        "lng": "39.852351904",
        "placeId": "1",
        "placeName": "مسجد طيب المطرفي",
        "pagesCount": 1
    },
    {
        "id": "9057",
        "lat": "21.393145153",
        "lng": "39.803146661",
        "placeId": "1",
        "placeName": "مسجد أبو بكر الصديق رضي الله عنه",
        "pagesCount": 1
    },
    {
        "id": "9579",
        "lat": "21.4251891110001",
        "lng": "39.7850994090001",
        "placeId": "1",
        "placeName": "مسجد الشيخ محمد الخزيم",
        "pagesCount": 1
    },
    {
        "id": "8915",
        "lat": "21.443235558",
        "lng": "39.855307732",
        "placeId": "1",
        "placeName": "مسجد الملك عبد العزيز",
        "pagesCount": 1
    },
    {
        "id": "8789",
        "lat": "21.3915198190001",
        "lng": "39.805923873",
        "placeId": "1",
        "placeName": "مسجد مريم الهوساوي",
        "pagesCount": 1
    },
    {
        "id": "9686",
        "lat": "21.453678585",
        "lng": "39.8442671700001",
        "placeId": "1",
        "placeName": "مسجد أحمد العوهلي 583",
        "pagesCount": 1
    },
    {
        "id": "10140",
        "lat": "21.4461662680001",
        "lng": "39.8535173330001",
        "placeId": "1",
        "placeName": "مسجد مساعد المطرفي",
        "pagesCount": 1
    },
    {
        "id": "10134",
        "lat": "21.4491105990001",
        "lng": "39.850732044",
        "placeId": "1",
        "placeName": "مسجد عبد العزيز المقرن",
        "pagesCount": 1
    },
    {
        "id": "9149",
        "lat": "21.444272921",
        "lng": "39.7916177990001",
        "placeId": "1",
        "placeName": "مسجد محمد على بن حنين",
        "pagesCount": 1
    },
    {
        "id": "9606",
        "lat": "21.387164",
        "lng": "39.8245951850001",
        "placeId": "1",
        "placeName": "مسجد محمد السبيل",
        "pagesCount": 1
    },
    {
        "id": "10076",
        "lat": "21.393666216",
        "lng": "39.8010718900001",
        "placeId": "1",
        "placeName": "مسجد عثمان بن عفان",
        "pagesCount": 1
    },
    {
        "id": "8768",
        "lat": "21.3923801560001",
        "lng": "39.8030602860001",
        "placeId": "1",
        "placeName": "مسجد دار التربية",
        "pagesCount": 1
    },
    {
        "id": "9577",
        "lat": "21.3931522510001",
        "lng": "39.8017362350001",
        "placeId": "1",
        "placeName": "مسجد عبد الرحمن بن عوف",
        "pagesCount": 1
    },
    {
        "id": "9891",
        "lat": "21.3878100430001",
        "lng": "39.8315387870001",
        "placeId": "1",
        "placeName": "مسجد الجزارم",
        "pagesCount": 1
    },
    {
        "id": "9663",
        "lat": "21.411670632",
        "lng": "39.860538895",
        "placeId": "1",
        "placeName": "مسجد صالح الأسود",
        "pagesCount": 1
    },
    {
        "id": "10091",
        "lat": "21.448731669",
        "lng": "39.851828143",
        "placeId": "1",
        "placeName": "مسجد سلطان عسيري",
        "pagesCount": 1
    },
    {
        "id": "9472",
        "lat": "21.38848169",
        "lng": "39.835349734",
        "placeId": "1",
        "placeName": "مسجد عبد الله عتيك الأنصاري",
        "pagesCount": 1
    },
    {
        "id": "9811",
        "lat": "21.46009",
        "lng": "39.82534",
        "placeId": "1",
        "placeName": "مسجد سعيد الصاعدي",
        "pagesCount": 1
    },
    {
        "id": "8945",
        "lat": "21.432262736",
        "lng": "39.785072986",
        "placeId": "1",
        "placeName": "مسجد الصالحين",
        "pagesCount": 1
    },
    {
        "id": "9351",
        "lat": "21.3916411910001",
        "lng": "39.8035258990001",
        "placeId": "1",
        "placeName": "مسجد صديقية",
        "pagesCount": 1
    },
    {
        "id": "9071",
        "lat": "21.4124371290001",
        "lng": "39.785618077",
        "placeId": "1",
        "placeName": "مسجد مقبول عبدالكافي",
        "pagesCount": 1
    },
    {
        "id": "9627",
        "lat": "21.419979631",
        "lng": "39.8627861370001",
        "placeId": "1",
        "placeName": "مسجد أبو بكر الصديق رضي الله عنه",
        "pagesCount": 1
    },
    {
        "id": "9358",
        "lat": "21.3922141890001",
        "lng": "39.802227594",
        "placeId": "1",
        "placeName": "مسجد الفارقية",
        "pagesCount": 1
    },
    {
        "id": "8793",
        "lat": "21.436727014",
        "lng": "39.7863502770001",
        "placeId": "1",
        "placeName": "مسجد القزاز",
        "pagesCount": 1
    },
    {
        "id": "9079",
        "lat": "21.389122871",
        "lng": "39.8383878270001",
        "placeId": "1",
        "placeName": "مسجد الشيخ عبد العزيز بن عبد الله الموسى",
        "pagesCount": 1
    },
    {
        "id": "9278",
        "lat": "21.4554147470001",
        "lng": "39.8032304550001",
        "placeId": "1",
        "placeName": "مسجد منيع بن منيع الله الحربى",
        "pagesCount": 1
    },
    {
        "id": "9787",
        "lat": "21.4573841860001",
        "lng": "39.806849368",
        "placeId": "1",
        "placeName": "مسجد جابر الحربي",
        "pagesCount": 1
    },
    {
        "id": "9491",
        "lat": "21.4432549000001",
        "lng": "39.7894272950001",
        "placeId": "1",
        "placeName": "مسجد الجوهرة",
        "pagesCount": 1
    },